"$GPRMC,143000.000,A,4700.5168,N,00735.4107,E,0.00,151.16,050914,,,A*69"
"$GPRMC,143001.000,A,4700.5168,N,00735.4107,E,0.00,151.16,050914,,,A*68"
"$GPRMC,143002.000,A,4700.5167,N,00735.4106,E,0.00,151.16,050914,,,A*65"
"$GPRMC,143003.000,A,4700.5167,N,00735.4106,E,0.00,151.16,050914,,,A*64"
"$GPRMC,143004.000,A,4700.5167,N,00735.4106,E,0.00,151.16,050914,,,A*63"
"$GPRMC,143005.000,A,4700.5167,N,00735.4106,E,0.00,151.16,050914,,,A*62"
"$GPRMC,143006.000,A,4700.5167,N,00735.4106,E,0.00,151.16,050914,,,A*61"
"$GPRMC,143007.000,A,4700.5167,N,00735.4106,E,0.00,151.16,050914,,,A*60"
"$GPRMC,143008.000,A,4700.5167,N,00735.4106,E,0.00,151.16,050914,,,A*6F"
"$GPRMC,143009.000,A,4700.5167,N,00735.4106,E,0.00,151.16,050914,,,A*6E"
"$GPRMC,143010.000,A,4700.5167,N,00735.4106,E,0.00,151.16,050914,,,A*66"
"$GPRMC,143011.000,A,4700.5167,N,00735.4106,E,0.00,151.16,050914,,,A*67"
"$GPRMC,143012.000,A,4700.5167,N,00735.4106,E,0.00,151.16,050914,,,A*64"
"$GPRMC,143013.000,A,4700.5166,N,00735.4106,E,0.00,151.16,050914,,,A*64"
"$GPRMC,143014.000,A,4700.5166,N,00735.4106,E,0.00,151.16,050914,,,A*63"
"$GPRMC,143015.000,A,4700.5166,N,00735.4106,E,0.00,151.16,050914,,,A*62"
"$GPRMC,143016.000,A,4700.5166,N,00735.4106,E,0.00,151.16,050914,,,A*61"
"$GPRMC,143017.000,A,4700.5166,N,00735.4106,E,0.00,151.16,050914,,,A*60"
"$GPRMC,143018.000,A,4700.5166,N,00735.4106,E,0.00,151.16,050914,,,A*6F"
"$GPRMC,143019.000,A,4700.5166,N,00735.4106,E,0.00,151.16,050914,,,A*6E"
"$GPRMC,143020.000,A,4700.5166,N,00735.4106,E,0.00,151.16,050914,,,A*64"
"$GPRMC,143021.000,A,4700.5165,N,00735.4106,E,0.00,151.16,050914,,,A*66"
"$GPRMC,143022.000,A,4700.5165,N,00735.4106,E,0.00,151.16,050914,,,A*65"
"$GPRMC,143023.000,A,4700.5165,N,00735.4106,E,0.00,151.16,050914,,,A*64"
"$GPRMC,143024.000,A,4700.5165,N,00735.4106,E,0.00,151.16,050914,,,A*63"
"$GPRMC,143025.000,A,4700.5165,N,00735.4106,E,0.00,151.16,050914,,,A*62"
"$GPRMC,143026.000,A,4700.5165,N,00735.4107,E,0.00,151.16,050914,,,A*60"
"$GPRMC,143027.000,A,4700.5165,N,00735.4107,E,0.00,151.16,050914,,,A*61"
"$GPRMC,143028.000,A,4700.5165,N,00735.4107,E,0.00,151.16,050914,,,A*6E"
"$GPRMC,143029.000,A,4700.5164,N,00735.4107,E,0.00,151.16,050914,,,A*6E"
"$GPRMC,143030.000,A,4700.5164,N,00735.4107,E,0.00,151.16,050914,,,A*66"
"$GPRMC,143031.000,A,4700.5164,N,00735.4107,E,0.00,151.16,050914,,,A*67"
"$GPRMC,143032.000,A,4700.5164,N,00735.4107,E,0.00,151.16,050914,,,A*64"
"$GPRMC,143033.000,A,4700.5164,N,00735.4107,E,0.00,151.16,050914,,,A*65"
"$GPRMC,143034.000,A,4700.5164,N,00735.4107,E,0.00,151.16,050914,,,A*62"
"$GPRMC,143035.000,A,4700.5164,N,00735.4107,E,0.00,151.16,050914,,,A*63"
"$GPRMC,143036.000,A,4700.5164,N,00735.4107,E,0.00,151.16,050914,,,A*60"
"$GPRMC,143037.000,A,4700.5164,N,00735.4107,E,0.00,151.16,050914,,,A*61"
"$GPRMC,143038.000,A,4700.5164,N,00735.4107,E,0.00,151.16,050914,,,A*6E"
"$GPRMC,143039.000,A,4700.5164,N,00735.4107,E,0.00,151.16,050914,,,A*6F"
"$GPRMC,143040.000,A,4700.5164,N,00735.4107,E,0.00,151.16,050914,,,A*61"
"$GPRMC,143041.000,A,4700.5164,N,00735.4107,E,0.00,151.16,050914,,,A*60"
"$GPRMC,143042.000,A,4700.5163,N,00735.4107,E,0.00,151.16,050914,,,A*64"
"$GPRMC,143043.000,A,4700.5163,N,00735.4107,E,0.00,151.16,050914,,,A*65"
"$GPRMC,143044.000,A,4700.5163,N,00735.4107,E,0.00,151.16,050914,,,A*62"
"$GPRMC,143045.000,A,4700.5163,N,00735.4107,E,0.00,151.16,050914,,,A*63"
"$GPRMC,143046.000,A,4700.5163,N,00735.4107,E,0.00,151.16,050914,,,A*60"
"$GPRMC,143047.000,A,4700.5163,N,00735.4107,E,0.00,151.16,050914,,,A*61"
"$GPRMC,143048.000,A,4700.5163,N,00735.4108,E,0.00,151.16,050914,,,A*61"
"$GPRMC,143049.000,A,4700.5163,N,00735.4108,E,0.00,151.16,050914,,,A*60"
"$GPRMC,143050.000,A,4700.5163,N,00735.4108,E,0.00,151.16,050914,,,A*68"
"$GPRMC,143051.000,A,4700.5163,N,00735.4108,E,0.00,151.16,050914,,,A*69"
"$GPRMC,143052.000,A,4700.5163,N,00735.4108,E,0.00,151.16,050914,,,A*6A"
"$GPRMC,143053.000,A,4700.5163,N,00735.4107,E,0.00,151.16,050914,,,A*64"
"$GPRMC,143054.000,A,4700.5164,N,00735.4107,E,0.00,151.16,050914,,,A*64"
"$GPRMC,143055.000,A,4700.5164,N,00735.4107,E,0.00,151.16,050914,,,A*65"
"$GPRMC,143056.000,A,4700.5164,N,00735.4107,E,0.00,151.16,050914,,,A*66"
"$GPRMC,143057.000,A,4700.5164,N,00735.4107,E,0.00,151.16,050914,,,A*67"
"$GPRMC,143058.000,A,4700.5164,N,00735.4107,E,0.00,151.16,050914,,,A*68"
"$GPRMC,143059.000,A,4700.5165,N,00735.4107,E,0.00,151.16,050914,,,A*68"
"$GPRMC,143100.000,A,4700.5165,N,00735.4106,E,0.00,151.16,050914,,,A*64"
"$GPRMC,143101.000,A,4700.5165,N,00735.4106,E,0.00,151.16,050914,,,A*65"
"$GPRMC,143102.000,A,4700.5165,N,00735.4106,E,0.00,151.16,050914,,,A*66"
"$GPRMC,143103.000,A,4700.5166,N,00735.4106,E,0.00,151.16,050914,,,A*64"
"$GPRMC,143104.000,A,4700.5166,N,00735.4106,E,0.00,151.16,050914,,,A*63"
"$GPRMC,143105.000,A,4700.5166,N,00735.4105,E,0.00,151.16,050914,,,A*61"
"$GPRMC,143106.000,A,4700.5166,N,00735.4105,E,0.00,151.16,050914,,,A*62"
"$GPRMC,143107.000,A,4700.5167,N,00735.4105,E,0.00,151.16,050914,,,A*62"
"$GPRMC,143108.000,A,4700.5167,N,00735.4105,E,0.00,151.16,050914,,,A*6D"
"$GPRMC,143109.000,A,4700.5167,N,00735.4104,E,0.00,151.16,050914,,,A*6D"
"$GPRMC,143110.000,A,4700.5167,N,00735.4104,E,0.00,151.16,050914,,,A*65"
"$GPRMC,143111.000,A,4700.5167,N,00735.4104,E,0.00,151.16,050914,,,A*64"
"$GPRMC,143112.000,A,4700.5168,N,00735.4104,E,0.00,151.16,050914,,,A*68"
"$GPRMC,143113.000,A,4700.5168,N,00735.4103,E,0.00,151.16,050914,,,A*6E"
"$GPRMC,143114.000,A,4700.5168,N,00735.4103,E,0.00,151.16,050914,,,A*69"
"$GPRMC,143115.000,A,4700.5168,N,00735.4103,E,0.00,151.16,050914,,,A*68"
"$GPRMC,143116.000,A,4700.5169,N,00735.4103,E,0.00,151.16,050914,,,A*6A"
"$GPRMC,143117.000,A,4700.5169,N,00735.4103,E,0.00,151.16,050914,,,A*6B"
"$GPRMC,143118.000,A,4700.5169,N,00735.4102,E,0.00,151.16,050914,,,A*65"
"$GPRMC,143119.000,A,4700.5169,N,00735.4102,E,0.00,151.16,050914,,,A*64"
"$GPRMC,143120.000,A,4700.5169,N,00735.4102,E,0.00,151.16,050914,,,A*6E"
"$GPRMC,143121.000,A,4700.5169,N,00735.4102,E,0.00,151.16,050914,,,A*6F"
"$GPRMC,143122.000,A,4700.5169,N,00735.4102,E,0.00,151.16,050914,,,A*6C"
"$GPRMC,143123.000,A,4700.5169,N,00735.4102,E,0.00,151.16,050914,,,A*6D"
"$GPRMC,143124.000,A,4700.5170,N,00735.4102,E,0.00,151.16,050914,,,A*62"
"$GPRMC,143125.000,A,4700.5170,N,00735.4102,E,0.00,151.16,050914,,,A*63"
"$GPRMC,143126.000,A,4700.5170,N,00735.4102,E,0.00,151.16,050914,,,A*60"
"$GPRMC,143127.000,A,4700.5170,N,00735.4102,E,0.00,151.16,050914,,,A*61"
"$GPRMC,143128.000,A,4700.5170,N,00735.4102,E,0.00,151.16,050914,,,A*6E"
"$GPRMC,143129.000,A,4700.5171,N,00735.4102,E,0.00,151.16,050914,,,A*6E"
"$GPRMC,143130.000,A,4700.5171,N,00735.4102,E,0.00,151.16,050914,,,A*66"
"$GPRMC,143131.000,A,4700.5171,N,00735.4102,E,0.00,151.16,050914,,,A*67"
"$GPRMC,143132.000,A,4700.5171,N,00735.4102,E,0.00,151.16,050914,,,A*64"
"$GPRMC,143133.000,A,4700.5171,N,00735.4101,E,0.00,151.16,050914,,,A*66"
"$GPRMC,143134.000,A,4700.5172,N,00735.4101,E,0.00,151.16,050914,,,A*62"
"$GPRMC,143135.000,A,4700.5172,N,00735.4101,E,0.00,151.16,050914,,,A*63"
"$GPRMC,143136.000,A,4700.5172,N,00735.4101,E,0.00,151.16,050914,,,A*60"
"$GPRMC,143137.000,A,4700.5172,N,00735.4101,E,0.00,151.16,050914,,,A*61"
"$GPRMC,143138.000,A,4700.5172,N,00735.4101,E,0.00,151.16,050914,,,A*6E"
"$GPRMC,143139.000,A,4700.5173,N,00735.4101,E,0.00,151.16,050914,,,A*6E"
"$GPRMC,143140.000,A,4700.5173,N,00735.4100,E,0.00,151.16,050914,,,A*61"
"$GPRMC,143141.000,A,4700.5173,N,00735.4100,E,0.00,151.16,050914,,,A*60"
"$GPRMC,143142.000,A,4700.5173,N,00735.4100,E,0.00,151.16,050914,,,A*63"
"$GPRMC,143143.000,A,4700.5173,N,00735.4100,E,0.00,151.16,050914,,,A*62"
"$GPRMC,143144.000,A,4700.5173,N,00735.4100,E,0.00,151.16,050914,,,A*65"
"$GPRMC,143145.000,A,4700.5173,N,00735.4100,E,0.00,151.16,050914,,,A*64"
"$GPRMC,143146.000,A,4700.5173,N,00735.4100,E,0.00,151.16,050914,,,A*67"
"$GPRMC,143147.000,A,4700.5173,N,00735.4100,E,0.00,151.16,050914,,,A*66"
"$GPRMC,143148.000,A,4700.5174,N,00735.4100,E,0.00,151.16,050914,,,A*6E"
"$GPRMC,143149.000,A,4700.5174,N,00735.4100,E,0.00,151.16,050914,,,A*6F"
"$GPRMC,143150.000,A,4700.5174,N,00735.4100,E,0.00,151.16,050914,,,A*67"
"$GPRMC,143151.000,A,4700.5174,N,00735.4100,E,0.00,151.16,050914,,,A*66"
"$GPRMC,143152.000,A,4700.5174,N,00735.4100,E,0.00,151.16,050914,,,A*65"
"$GPRMC,143153.000,A,4700.5174,N,00735.4100,E,0.00,151.16,050914,,,A*64"
"$GPRMC,143154.000,A,4700.5174,N,00735.4100,E,0.00,151.16,050914,,,A*63"
"$GPRMC,143155.000,A,4700.5173,N,00735.4101,E,0.00,151.16,050914,,,A*64"
"$GPRMC,143156.000,A,4700.5173,N,00735.4101,E,0.00,151.16,050914,,,A*67"
"$GPRMC,143157.000,A,4700.5173,N,00735.4101,E,0.00,151.16,050914,,,A*66"
"$GPRMC,143158.000,A,4700.5173,N,00735.4101,E,0.00,151.16,050914,,,A*69"
"$GPRMC,143159.000,A,4700.5174,N,00735.4101,E,0.00,151.16,050914,,,A*6F"
"$GPRMC,143200.000,A,4700.5174,N,00735.4101,E,0.00,151.16,050914,,,A*60"
"$GPRMC,143201.000,A,4700.5174,N,00735.4101,E,0.00,151.16,050914,,,A*61"
"$GPRMC,143202.000,A,4700.5174,N,00735.4101,E,0.00,151.16,050914,,,A*62"
"$GPRMC,143203.000,A,4700.5174,N,00735.4101,E,0.00,151.16,050914,,,A*63"
"$GPRMC,143204.000,A,4700.5174,N,00735.4100,E,0.00,151.16,050914,,,A*65"
"$GPRMC,143205.000,A,4700.5174,N,00735.4101,E,0.00,151.16,050914,,,A*65"
"$GPRMC,143206.000,A,4700.5174,N,00735.4101,E,0.00,151.16,050914,,,A*66"
"$GPRMC,143207.000,A,4700.5174,N,00735.4101,E,0.00,151.16,050914,,,A*67"
"$GPRMC,143208.000,A,4700.5174,N,00735.4101,E,0.00,151.16,050914,,,A*68"
"$GPRMC,143209.000,A,4700.5174,N,00735.4101,E,0.00,151.16,050914,,,A*69"
"$GPRMC,143210.000,A,4700.5174,N,00735.4101,E,0.00,151.16,050914,,,A*61"
"$GPRMC,143211.000,A,4700.5174,N,00735.4101,E,0.00,151.16,050914,,,A*60"
"$GPRMC,143212.000,A,4700.5174,N,00735.4101,E,0.00,151.16,050914,,,A*63"
"$GPRMC,143213.000,A,4700.5174,N,00735.4102,E,0.00,151.16,050914,,,A*61"
"$GPRMC,143214.000,A,4700.5174,N,00735.4102,E,0.00,151.16,050914,,,A*66"
"$GPRMC,143215.000,A,4700.5174,N,00735.4102,E,0.00,151.16,050914,,,A*67"
"$GPRMC,143216.000,A,4700.5174,N,00735.4102,E,0.00,151.16,050914,,,A*64"
"$GPRMC,143217.000,A,4700.5174,N,00735.4102,E,0.00,151.16,050914,,,A*65"
"$GPRMC,143218.000,A,4700.5173,N,00735.4102,E,0.00,151.16,050914,,,A*6D"
"$GPRMC,143219.000,A,4700.5173,N,00735.4102,E,0.00,151.16,050914,,,A*6C"
"$GPRMC,143220.000,A,4700.5173,N,00735.4102,E,0.00,151.16,050914,,,A*66"
"$GPRMC,143221.000,A,4700.5173,N,00735.4102,E,0.00,151.16,050914,,,A*67"
"$GPRMC,143222.000,A,4700.5173,N,00735.4103,E,0.00,151.16,050914,,,A*65"
"$GPRMC,143223.000,A,4700.5173,N,00735.4103,E,0.00,151.16,050914,,,A*64"
"$GPRMC,143224.000,A,4700.5173,N,00735.4103,E,0.00,151.16,050914,,,A*63"
"$GPRMC,143225.000,A,4700.5173,N,00735.4103,E,0.00,151.16,050914,,,A*62"
"$GPRMC,143226.000,A,4700.5173,N,00735.4103,E,0.00,151.16,050914,,,A*61"
"$GPRMC,143227.000,A,4700.5173,N,00735.4103,E,0.00,151.16,050914,,,A*60"
"$GPRMC,143228.000,A,4700.5173,N,00735.4103,E,0.00,151.16,050914,,,A*6F"
"$GPRMC,143229.000,A,4700.5173,N,00735.4103,E,0.00,151.16,050914,,,A*6E"
"$GPRMC,143230.000,A,4700.5173,N,00735.4103,E,0.00,151.16,050914,,,A*66"
"$GPRMC,143231.000,A,4700.5173,N,00735.4103,E,0.00,151.16,050914,,,A*67"
"$GPRMC,143232.000,A,4700.5173,N,00735.4103,E,0.00,151.16,050914,,,A*64"
"$GPRMC,143233.000,A,4700.5173,N,00735.4103,E,0.00,151.16,050914,,,A*65"
"$GPRMC,143234.000,A,4700.5173,N,00735.4103,E,0.00,151.16,050914,,,A*62"
"$GPRMC,143235.000,A,4700.5174,N,00735.4103,E,0.00,151.16,050914,,,A*64"
"$GPRMC,143236.000,A,4700.5174,N,00735.4103,E,0.00,151.16,050914,,,A*67"
"$GPRMC,143237.000,A,4700.5173,N,00735.4103,E,0.00,151.16,050914,,,A*61"
"$GPRMC,143238.000,A,4700.5173,N,00735.4103,E,0.00,151.16,050914,,,A*6E"
"$GPRMC,143239.000,A,4700.5174,N,00735.4103,E,0.00,151.16,050914,,,A*68"
"$GPRMC,143240.000,A,4700.5174,N,00735.4103,E,0.00,151.16,050914,,,A*66"
"$GPRMC,143241.000,A,4700.5174,N,00735.4103,E,0.00,151.16,050914,,,A*67"
"$GPRMC,143242.000,A,4700.5174,N,00735.4103,E,0.00,151.16,050914,,,A*64"
"$GPRMC,143243.000,A,4700.5174,N,00735.4103,E,0.00,151.16,050914,,,A*65"
"$GPRMC,143244.000,A,4700.5174,N,00735.4103,E,0.00,151.16,050914,,,A*62"
"$GPRMC,143245.000,A,4700.5174,N,00735.4103,E,0.00,151.16,050914,,,A*63"
"$GPRMC,143246.000,A,4700.5174,N,00735.4103,E,0.00,151.16,050914,,,A*60"
"$GPRMC,143247.000,A,4700.5173,N,00735.4103,E,0.00,151.16,050914,,,A*66"
"$GPRMC,143248.000,A,4700.5173,N,00735.4103,E,0.00,151.16,050914,,,A*69"
"$GPRMC,143249.000,A,4700.5173,N,00735.4103,E,0.00,151.16,050914,,,A*68"
"$GPRMC,143250.000,A,4700.5173,N,00735.4103,E,0.00,151.16,050914,,,A*60"
"$GPRMC,143251.000,A,4700.5173,N,00735.4103,E,0.00,151.16,050914,,,A*61"
"$GPRMC,143252.000,A,4700.5173,N,00735.4104,E,0.00,151.16,050914,,,A*65"
"$GPRMC,143253.000,A,4700.5173,N,00735.4104,E,0.00,151.16,050914,,,A*64"
"$GPRMC,143254.000,A,4700.5172,N,00735.4104,E,0.00,151.16,050914,,,A*62"
"$GPRMC,143255.000,A,4700.5172,N,00735.4104,E,0.00,151.16,050914,,,A*63"
"$GPRMC,143256.000,A,4700.5171,N,00735.4104,E,0.00,151.16,050914,,,A*63"
"$GPRMC,143257.000,A,4700.5170,N,00735.4104,E,0.00,151.16,050914,,,A*63"
"$GPRMC,143258.000,A,4700.5169,N,00735.4104,E,0.00,151.16,050914,,,A*64"
"$GPRMC,143259.000,A,4700.5169,N,00735.4104,E,0.00,151.16,050914,,,A*65"
"$GPRMC,143300.000,A,4700.5170,N,00735.4104,E,0.00,151.16,050914,,,A*60"
"$GPRMC,143301.000,A,4700.5170,N,00735.4104,E,0.00,151.16,050914,,,A*61"
"$GPRMC,143302.000,A,4700.5171,N,00735.4103,E,0.00,151.16,050914,,,A*64"
"$GPRMC,143303.000,A,4700.5171,N,00735.4103,E,0.00,151.16,050914,,,A*65"
"$GPRMC,143304.000,A,4700.5171,N,00735.4103,E,0.00,151.16,050914,,,A*62"
"$GPRMC,143305.000,A,4700.5171,N,00735.4104,E,0.00,151.16,050914,,,A*64"
"$GPRMC,143306.000,A,4700.5171,N,00735.4104,E,0.00,151.16,050914,,,A*67"
"$GPRMC,143307.000,A,4700.5171,N,00735.4104,E,0.00,151.16,050914,,,A*66"
"$GPRMC,143308.000,A,4700.5172,N,00735.4104,E,0.00,151.16,050914,,,A*6A"
"$GPRMC,143309.000,A,4700.5172,N,00735.4104,E,0.00,151.16,050914,,,A*6B"
"$GPRMC,143310.000,A,4700.5172,N,00735.4103,E,0.00,151.16,050914,,,A*64"
"$GPRMC,143311.000,A,4700.5172,N,00735.4103,E,0.00,151.16,050914,,,A*65"
"$GPRMC,143312.000,A,4700.5172,N,00735.4103,E,0.00,151.16,050914,,,A*66"
"$GPRMC,143313.000,A,4700.5172,N,00735.4103,E,0.00,151.16,050914,,,A*67"
"$GPRMC,143314.000,A,4700.5172,N,00735.4103,E,0.00,151.16,050914,,,A*60"
"$GPRMC,143315.000,A,4700.5172,N,00735.4103,E,0.00,151.16,050914,,,A*61"
"$GPRMC,143316.000,A,4700.5172,N,00735.4103,E,0.00,151.16,050914,,,A*62"
"$GPRMC,143317.000,A,4700.5172,N,00735.4103,E,0.00,151.16,050914,,,A*63"
"$GPRMC,143318.000,A,4700.5172,N,00735.4103,E,0.00,151.16,050914,,,A*6C"
"$GPRMC,143319.000,A,4700.5172,N,00735.4103,E,0.00,151.16,050914,,,A*6D"
"$GPRMC,143320.000,A,4700.5172,N,00735.4102,E,0.00,151.16,050914,,,A*66"
"$GPRMC,143321.000,A,4700.5172,N,00735.4102,E,0.00,151.16,050914,,,A*67"
"$GPRMC,143322.000,A,4700.5172,N,00735.4102,E,0.00,151.16,050914,,,A*64"
"$GPRMC,143323.000,A,4700.5172,N,00735.4102,E,0.00,151.16,050914,,,A*65"
"$GPRMC,143324.000,A,4700.5172,N,00735.4102,E,0.00,151.16,050914,,,A*62"
"$GPRMC,143325.000,A,4700.5172,N,00735.4102,E,0.00,151.16,050914,,,A*63"
"$GPRMC,143326.000,A,4700.5172,N,00735.4102,E,0.00,151.16,050914,,,A*60"
"$GPRMC,143327.000,A,4700.5171,N,00735.4102,E,0.00,151.16,050914,,,A*62"
"$GPRMC,143328.000,A,4700.5171,N,00735.4102,E,0.00,151.16,050914,,,A*6D"
"$GPRMC,143329.000,A,4700.5171,N,00735.4102,E,0.00,151.16,050914,,,A*6C"
"$GPRMC,143330.000,A,4700.5171,N,00735.4102,E,0.00,151.16,050914,,,A*64"
"$GPRMC,143331.000,A,4700.5171,N,00735.4102,E,0.00,151.16,050914,,,A*65"
"$GPRMC,143332.000,A,4700.5171,N,00735.4103,E,0.00,151.16,050914,,,A*67"
"$GPRMC,143333.000,A,4700.5170,N,00735.4103,E,0.00,151.16,050914,,,A*67"
"$GPRMC,143334.000,A,4700.5170,N,00735.4103,E,0.00,151.16,050914,,,A*60"
"$GPRMC,143335.000,A,4700.5170,N,00735.4103,E,0.00,151.16,050914,,,A*61"
"$GPRMC,143336.000,A,4700.5169,N,00735.4104,E,0.00,151.16,050914,,,A*6D"
"$GPRMC,143337.000,A,4700.5169,N,00735.4104,E,0.00,151.16,050914,,,A*6C"
"$GPRMC,143338.000,A,4700.5169,N,00735.4104,E,0.00,151.16,050914,,,A*63"
"$GPRMC,143339.000,A,4700.5169,N,00735.4104,E,0.00,151.16,050914,,,A*62"
"$GPRMC,143340.000,A,4700.5169,N,00735.4104,E,0.00,151.16,050914,,,A*6C"
"$GPRMC,143341.000,A,4700.5169,N,00735.4104,E,0.00,151.16,050914,,,A*6D"
"$GPRMC,143342.000,A,4700.5169,N,00735.4104,E,0.00,151.16,050914,,,A*6E"
"$GPRMC,143343.000,A,4700.5169,N,00735.4104,E,0.00,151.16,050914,,,A*6F"
"$GPRMC,143344.000,A,4700.5168,N,00735.4104,E,0.00,151.16,050914,,,A*69"
"$GPRMC,143345.000,A,4700.5168,N,00735.4104,E,0.00,151.16,050914,,,A*68"
"$GPRMC,143346.000,A,4700.5168,N,00735.4104,E,0.00,151.16,050914,,,A*6B"
"$GPRMC,143347.000,A,4700.5168,N,00735.4104,E,0.00,151.16,050914,,,A*6A"
"$GPRMC,143348.000,A,4700.5168,N,00735.4104,E,0.00,151.16,050914,,,A*65"
"$GPRMC,143349.000,A,4700.5168,N,00735.4104,E,0.00,151.16,050914,,,A*64"
"$GPRMC,143350.000,A,4700.5167,N,00735.4105,E,0.00,151.16,050914,,,A*62"
"$GPRMC,143351.000,A,4700.5167,N,00735.4105,E,0.00,151.16,050914,,,A*63"
"$GPRMC,143352.000,A,4700.5167,N,00735.4104,E,0.00,151.16,050914,,,A*61"
"$GPRMC,143353.000,A,4700.5167,N,00735.4104,E,0.00,151.16,050914,,,A*60"
"$GPRMC,143354.000,A,4700.5167,N,00735.4105,E,0.00,151.16,050914,,,A*66"
"$GPRMC,143355.000,A,4700.5167,N,00735.4105,E,0.00,151.16,050914,,,A*67"
"$GPRMC,143356.000,A,4700.5167,N,00735.4104,E,0.00,151.16,050914,,,A*65"
"$GPRMC,143357.000,A,4700.5167,N,00735.4104,E,0.00,151.16,050914,,,A*64"
"$GPRMC,143358.000,A,4700.5167,N,00735.4104,E,0.00,151.16,050914,,,A*6B"
"$GPRMC,143359.000,A,4700.5167,N,00735.4103,E,0.00,151.16,050914,,,A*6D"
"$GPRMC,143400.000,A,4700.5168,N,00735.4103,E,0.00,151.16,050914,,,A*69"
"$GPRMC,143401.000,A,4700.5169,N,00735.4103,E,0.00,151.16,050914,,,A*69"
"$GPRMC,143402.000,A,4700.5168,N,00735.4103,E,0.00,151.16,050914,,,A*6B"
"$GPRMC,143403.000,A,4700.5168,N,00735.4103,E,0.00,151.16,050914,,,A*6A"
"$GPRMC,143404.000,A,4700.5168,N,00735.4102,E,0.00,151.16,050914,,,A*6C"
"$GPRMC,143405.000,A,4700.5168,N,00735.4102,E,0.00,151.16,050914,,,A*6D"
"$GPRMC,143406.000,A,4700.5169,N,00735.4102,E,0.00,151.16,050914,,,A*6F"
"$GPRMC,143407.000,A,4700.5169,N,00735.4102,E,0.00,151.16,050914,,,A*6E"
"$GPRMC,143408.000,A,4700.5170,N,00735.4102,E,0.00,151.16,050914,,,A*69"
"$GPRMC,143409.000,A,4700.5170,N,00735.4102,E,0.00,151.16,050914,,,A*68"
"$GPRMC,143410.000,A,4700.5170,N,00735.4102,E,0.00,151.16,050914,,,A*60"
"$GPRMC,143411.000,A,4700.5170,N,00735.4102,E,0.00,151.16,050914,,,A*61"
"$GPRMC,143412.000,A,4700.5170,N,00735.4102,E,0.00,151.16,050914,,,A*62"
"$GPRMC,143413.000,A,4700.5170,N,00735.4102,E,0.00,151.16,050914,,,A*63"
"$GPRMC,143414.000,A,4700.5171,N,00735.4102,E,0.00,151.16,050914,,,A*65"
"$GPRMC,143415.000,A,4700.5171,N,00735.4102,E,0.00,151.16,050914,,,A*64"
"$GPRMC,143416.000,A,4700.5171,N,00735.4102,E,0.00,151.16,050914,,,A*67"
"$GPRMC,143417.000,A,4700.5171,N,00735.4102,E,0.00,151.16,050914,,,A*66"
"$GPRMC,143418.000,A,4700.5171,N,00735.4102,E,0.00,151.16,050914,,,A*69"
"$GPRMC,143419.000,A,4700.5171,N,00735.4102,E,0.00,151.16,050914,,,A*68"
"$GPRMC,143420.000,A,4700.5171,N,00735.4101,E,0.00,151.16,050914,,,A*61"
"$GPRMC,143421.000,A,4700.5171,N,00735.4101,E,0.00,151.16,050914,,,A*60"
"$GPRMC,143422.000,A,4700.5171,N,00735.4101,E,0.00,151.16,050914,,,A*63"
"$GPRMC,143423.000,A,4700.5171,N,00735.4101,E,0.00,151.16,050914,,,A*62"
"$GPRMC,143424.000,A,4700.5171,N,00735.4102,E,0.00,151.16,050914,,,A*66"
"$GPRMC,143425.000,A,4700.5171,N,00735.4102,E,0.00,151.16,050914,,,A*67"
"$GPRMC,143426.000,A,4700.5171,N,00735.4102,E,0.00,151.16,050914,,,A*64"
"$GPRMC,143427.000,A,4700.5170,N,00735.4102,E,0.00,151.16,050914,,,A*64"
"$GPRMC,143428.000,A,4700.5170,N,00735.4103,E,0.00,151.16,050914,,,A*6A"
"$GPRMC,143429.000,A,4700.5170,N,00735.4103,E,0.00,151.16,050914,,,A*6B"
"$GPRMC,143430.000,A,4700.5170,N,00735.4102,E,0.00,151.16,050914,,,A*62"
"$GPRMC,143431.000,A,4700.5170,N,00735.4102,E,0.00,151.16,050914,,,A*63"
"$GPRMC,143432.000,A,4700.5170,N,00735.4102,E,0.00,151.16,050914,,,A*60"
"$GPRMC,143433.000,A,4700.5170,N,00735.4102,E,0.00,151.16,050914,,,A*61"
"$GPRMC,143434.000,A,4700.5170,N,00735.4102,E,0.00,151.16,050914,,,A*66"
"$GPRMC,143435.000,A,4700.5170,N,00735.4102,E,0.00,151.16,050914,,,A*67"
"$GPRMC,143436.000,A,4700.5170,N,00735.4102,E,0.00,151.16,050914,,,A*64"
"$GPRMC,143437.000,A,4700.5170,N,00735.4102,E,0.00,151.16,050914,,,A*65"
"$GPRMC,143438.000,A,4700.5170,N,00735.4102,E,0.00,151.16,050914,,,A*6A"
"$GPRMC,143439.000,A,4700.5170,N,00735.4102,E,0.00,151.16,050914,,,A*6B"
"$GPRMC,143440.000,A,4700.5170,N,00735.4102,E,0.00,151.16,050914,,,A*65"
"$GPRMC,143441.000,A,4700.5170,N,00735.4102,E,0.00,151.16,050914,,,A*64"
"$GPRMC,143442.000,A,4700.5170,N,00735.4102,E,0.00,151.16,050914,,,A*67"
"$GPRMC,143443.000,A,4700.5170,N,00735.4102,E,0.00,151.16,050914,,,A*66"
"$GPRMC,143444.000,A,4700.5170,N,00735.4102,E,0.00,151.16,050914,,,A*61"
"$GPRMC,143445.000,A,4700.5170,N,00735.4102,E,0.00,151.16,050914,,,A*60"
"$GPRMC,143446.000,A,4700.5170,N,00735.4102,E,0.00,151.16,050914,,,A*63"
"$GPRMC,143447.000,A,4700.5170,N,00735.4102,E,0.00,151.16,050914,,,A*62"
"$GPRMC,143448.000,A,4700.5169,N,00735.4102,E,0.00,151.16,050914,,,A*65"
"$GPRMC,143449.000,A,4700.5169,N,00735.4102,E,0.00,151.16,050914,,,A*64"
"$GPRMC,143450.000,A,4700.5169,N,00735.4102,E,0.00,151.16,050914,,,A*6C"
"$GPRMC,143451.000,A,4700.5169,N,00735.4102,E,0.00,151.16,050914,,,A*6D"
"$GPRMC,143452.000,A,4700.5169,N,00735.4102,E,0.00,151.16,050914,,,A*6E"
"$GPRMC,143453.000,A,4700.5169,N,00735.4102,E,0.00,151.16,050914,,,A*6F"
"$GPRMC,143454.000,A,4700.5169,N,00735.4102,E,0.00,151.16,050914,,,A*68"
"$GPRMC,143455.000,A,4700.5169,N,00735.4102,E,0.00,151.16,050914,,,A*69"
"$GPRMC,143456.000,A,4700.5169,N,00735.4102,E,0.00,151.16,050914,,,A*6A"
"$GPRMC,143457.000,A,4700.5169,N,00735.4102,E,0.00,151.16,050914,,,A*6B"
"$GPRMC,143458.000,A,4700.5169,N,00735.4102,E,0.00,151.16,050914,,,A*64"
"$GPRMC,143459.000,A,4700.5169,N,00735.4102,E,0.00,151.16,050914,,,A*65"
"$GPRMC,143500.000,A,4700.5169,N,00735.4102,E,0.00,151.16,050914,,,A*68"
"$GPRMC,143501.000,A,4700.5168,N,00735.4102,E,0.00,151.16,050914,,,A*68"
"$GPRMC,143502.000,A,4700.5168,N,00735.4102,E,0.00,151.16,050914,,,A*6B"
"$GPRMC,143503.000,A,4700.5168,N,00735.4102,E,0.00,151.16,050914,,,A*6A"
"$GPRMC,143504.000,A,4700.5168,N,00735.4102,E,0.00,151.16,050914,,,A*6D"
"$GPRMC,143505.000,A,4700.5168,N,00735.4102,E,0.00,151.16,050914,,,A*6C"
"$GPRMC,143506.000,A,4700.5168,N,00735.4102,E,0.00,151.16,050914,,,A*6F"
"$GPRMC,143507.000,A,4700.5168,N,00735.4102,E,0.00,151.16,050914,,,A*6E"
"$GPRMC,143508.000,A,4700.5168,N,00735.4102,E,0.00,151.16,050914,,,A*61"
"$GPRMC,143509.000,A,4700.5168,N,00735.4102,E,0.00,151.16,050914,,,A*60"
"$GPRMC,143510.000,A,4700.5168,N,00735.4102,E,0.00,151.16,050914,,,A*68"
"$GPRMC,143511.000,A,4700.5169,N,00735.4102,E,0.00,151.16,050914,,,A*68"
"$GPRMC,143512.000,A,4700.5169,N,00735.4102,E,0.00,151.16,050914,,,A*6B"
"$GPRMC,143513.000,A,4700.5169,N,00735.4102,E,0.00,151.16,050914,,,A*6A"
"$GPRMC,143514.000,A,4700.5169,N,00735.4102,E,0.00,151.16,050914,,,A*6D"
"$GPRMC,143515.000,A,4700.5169,N,00735.4103,E,0.00,151.16,050914,,,A*6D"
"$GPRMC,143516.000,A,4700.5168,N,00735.4103,E,0.00,151.16,050914,,,A*6F"
"$GPRMC,143517.000,A,4700.5168,N,00735.4103,E,0.00,151.16,050914,,,A*6E"
"$GPRMC,143518.000,A,4700.5168,N,00735.4104,E,0.00,151.16,050914,,,A*66"
"$GPRMC,143519.000,A,4700.5168,N,00735.4104,E,0.00,151.16,050914,,,A*67"
"$GPRMC,143520.000,A,4700.5168,N,00735.4104,E,0.00,151.16,050914,,,A*6D"
"$GPRMC,143521.000,A,4700.5168,N,00735.4104,E,0.00,151.16,050914,,,A*6C"
"$GPRMC,143522.000,A,4700.5168,N,00735.4104,E,0.00,151.16,050914,,,A*6F"
"$GPRMC,143523.000,A,4700.5168,N,00735.4104,E,0.00,151.16,050914,,,A*6E"
"$GPRMC,143524.000,A,4700.5169,N,00735.4104,E,0.00,151.16,050914,,,A*68"
"$GPRMC,143525.000,A,4700.5169,N,00735.4104,E,0.00,151.16,050914,,,A*69"
"$GPRMC,143526.000,A,4700.5169,N,00735.4104,E,0.00,151.16,050914,,,A*6A"
"$GPRMC,143527.000,A,4700.5169,N,00735.4104,E,0.00,151.16,050914,,,A*6B"
"$GPRMC,143528.000,A,4700.5169,N,00735.4104,E,0.00,151.16,050914,,,A*64"
"$GPRMC,143529.000,A,4700.5168,N,00735.4104,E,0.00,151.16,050914,,,A*64"
"$GPRMC,143530.000,A,4700.5168,N,00735.4105,E,0.00,151.16,050914,,,A*6D"
"$GPRMC,143531.000,A,4700.5169,N,00735.4105,E,0.00,151.16,050914,,,A*6D"
"$GPRMC,143532.000,A,4700.5168,N,00735.4105,E,0.00,151.16,050914,,,A*6F"
"$GPRMC,143533.000,A,4700.5168,N,00735.4105,E,0.00,151.16,050914,,,A*6E"
"$GPRMC,143534.000,A,4700.5169,N,00735.4105,E,0.00,151.16,050914,,,A*68"
"$GPRMC,143535.000,A,4700.5169,N,00735.4105,E,0.00,151.16,050914,,,A*69"
"$GPRMC,143536.000,A,4700.5169,N,00735.4105,E,0.00,151.16,050914,,,A*6A"
"$GPRMC,143537.000,A,4700.5169,N,00735.4105,E,0.00,151.16,050914,,,A*6B"
"$GPRMC,143538.000,A,4700.5169,N,00735.4105,E,0.00,151.16,050914,,,A*64"
"$GPRMC,143539.000,A,4700.5168,N,00735.4105,E,0.00,151.16,050914,,,A*64"
"$GPRMC,143540.000,A,4700.5168,N,00735.4105,E,0.00,151.16,050914,,,A*6A"
"$GPRMC,143541.000,A,4700.5168,N,00735.4106,E,0.00,151.16,050914,,,A*68"
"$GPRMC,143542.000,A,4700.5168,N,00735.4106,E,0.00,151.16,050914,,,A*6B"
"$GPRMC,143543.000,A,4700.5168,N,00735.4106,E,0.00,151.16,050914,,,A*6A"
"$GPRMC,143544.000,A,4700.5168,N,00735.4106,E,0.00,151.16,050914,,,A*6D"
"$GPRMC,143545.000,A,4700.5168,N,00735.4106,E,0.00,151.16,050914,,,A*6C"
"$GPRMC,143546.000,A,4700.5168,N,00735.4107,E,0.00,151.16,050914,,,A*6E"
"$GPRMC,143547.000,A,4700.5168,N,00735.4107,E,0.00,151.16,050914,,,A*6F"
"$GPRMC,143548.000,A,4700.5168,N,00735.4107,E,0.00,151.16,050914,,,A*60"
"$GPRMC,143549.000,A,4700.5167,N,00735.4108,E,0.00,151.16,050914,,,A*61"
"$GPRMC,143550.000,A,4700.5166,N,00735.4108,E,0.00,151.16,050914,,,A*68"
"$GPRMC,143551.000,A,4700.5164,N,00735.4109,E,0.00,151.16,050914,,,A*6A"
"$GPRMC,143552.000,A,4700.5163,N,00735.4109,E,0.00,151.16,050914,,,A*6E"
"$GPRMC,143553.000,A,4700.5163,N,00735.4109,E,0.00,151.16,050914,,,A*6F"
"$GPRMC,143554.000,A,4700.5163,N,00735.4108,E,0.00,151.16,050914,,,A*69"
"$GPRMC,143555.000,A,4700.5162,N,00735.4108,E,0.00,151.16,050914,,,A*69"
"$GPRMC,143556.000,A,4700.5163,N,00735.4107,E,0.00,151.16,050914,,,A*64"
"$GPRMC,143557.000,A,4700.5161,N,00735.4107,E,0.00,151.16,050914,,,A*67"
"$GPRMC,143558.000,A,4700.5159,N,00735.4107,E,0.00,151.16,050914,,,A*63"
"$GPRMC,143559.000,A,4700.5157,N,00735.4106,E,0.00,151.16,050914,,,A*6D"
"$GPRMC,143600.000,A,4700.5157,N,00735.4103,E,0.00,151.16,050914,,,A*67"
"$GPRMC,143601.000,A,4700.5156,N,00735.4100,E,0.00,151.16,050914,,,A*64"
"$GPRMC,143602.000,A,4700.5154,N,00735.4096,E,0.00,151.16,050914,,,A*6B"
"$GPRMC,143603.000,A,4700.5153,N,00735.4091,E,0.00,151.16,050914,,,A*6A"
"$GPRMC,143604.000,A,4700.5154,N,00735.4084,E,0.00,151.16,050914,,,A*6E"
"$GPRMC,143605.000,A,4700.5155,N,00735.4076,E,0.00,151.16,050914,,,A*63"
"$GPRMC,143606.000,A,4700.5156,N,00735.4066,E,2.34,273.67,050914,,,A*62"
"$GPRMC,143607.000,A,4700.5157,N,00735.4057,E,0.00,273.67,050914,,,A*65"
"$GPRMC,143608.000,A,4700.5156,N,00735.4050,E,0.00,273.67,050914,,,A*6C"
"$GPRMC,143609.000,A,4700.5153,N,00735.4042,E,0.00,273.67,050914,,,A*6B"
"$GPRMC,143610.000,A,4700.5150,N,00735.4037,E,0.00,273.67,050914,,,A*62"
"$GPRMC,143611.000,A,4700.5148,N,00735.4034,E,0.00,273.67,050914,,,A*69"
"$GPRMC,143612.000,A,4700.5144,N,00735.4029,E,2.43,213.86,050914,,,A*66"
"$GPRMC,143613.000,A,4700.5140,N,00735.4024,E,0.00,213.86,050914,,,A*6B"
"$GPRMC,143614.000,A,4700.5135,N,00735.4021,E,0.00,213.86,050914,,,A*6B"
"$GPRMC,143615.000,A,4700.5131,N,00735.4018,E,0.00,213.86,050914,,,A*64"
"$GPRMC,143616.000,A,4700.5125,N,00735.4014,E,0.00,213.86,050914,,,A*6E"
"$GPRMC,143617.000,A,4700.5119,N,00735.4009,E,0.00,213.86,050914,,,A*6C"
"$GPRMC,143618.000,A,4700.5114,N,00735.4004,E,0.00,213.86,050914,,,A*63"
"$GPRMC,143619.000,A,4700.5107,N,00735.4000,E,0.00,213.86,050914,,,A*64"
"$GPRMC,143620.000,A,4700.5100,N,00735.3995,E,0.00,213.86,050914,,,A*6B"
"$GPRMC,143621.000,A,4700.5092,N,00735.3990,E,0.00,213.86,050914,,,A*65"
"$GPRMC,143622.000,A,4700.5085,N,00735.3985,E,2.94,205.90,050914,,,A*6B"
"$GPRMC,143623.000,A,4700.5078,N,00735.3978,E,2.85,216.38,050914,,,A*6A"
"$GPRMC,143624.000,A,4700.5073,N,00735.3970,E,2.67,226.67,050914,,,A*6B"
"$GPRMC,143625.000,A,4700.5067,N,00735.3961,E,2.85,233.21,050914,,,A*65"
"$GPRMC,143626.000,A,4700.5062,N,00735.3951,E,2.73,236.84,050914,,,A*63"
"$GPRMC,143627.000,A,4700.5058,N,00735.3942,E,2.40,247.22,050914,,,A*63"
"$GPRMC,143628.000,A,4700.5056,N,00735.3931,E,2.62,263.75,050914,,,A*62"
"$GPRMC,143629.000,A,4700.5055,N,00735.3920,E,2.48,264.35,050914,,,A*6B"
"$GPRMC,143630.000,A,4700.5054,N,00735.3909,E,2.62,260.15,050914,,,A*67"
"$GPRMC,143631.000,A,4700.5053,N,00735.3898,E,2.64,263.24,050914,,,A*6F"
"$GPRMC,143632.000,A,4700.5052,N,00735.3886,E,2.61,263.35,050914,,,A*67"
"$GPRMC,143633.000,A,4700.5052,N,00735.3873,E,3.19,264.21,050914,,,A*60"
"$GPRMC,143634.000,A,4700.5050,N,00735.3858,E,3.75,267.18,050914,,,A*6F"
"$GPRMC,143635.000,A,4700.5050,N,00735.3841,E,4.24,269.77,050914,,,A*62"
"$GPRMC,143636.000,A,4700.5050,N,00735.3822,E,4.94,270.10,050914,,,A*66"
"$GPRMC,143637.000,A,4700.5049,N,00735.3801,E,4.96,269.42,050914,,,A*63"
"$GPRMC,143638.000,A,4700.5049,N,00735.3782,E,4.18,270.76,050914,,,A*61"
"$GPRMC,143639.000,A,4700.5050,N,00735.3766,E,3.45,277.39,050914,,,A*61"
"$GPRMC,143640.000,A,4700.5051,N,00735.3751,E,3.26,280.87,050914,,,A*62"
"$GPRMC,143641.000,A,4700.5052,N,00735.3737,E,2.89,282.94,050914,,,A*64"
"$GPRMC,143642.000,A,4700.5054,N,00735.3726,E,2.89,290.43,050914,,,A*68"
"$GPRMC,143643.000,A,4700.5056,N,00735.3715,E,2.65,295.34,050914,,,A*6C"
"$GPRMC,143644.000,A,4700.5059,N,00735.3705,E,2.63,294.73,050914,,,A*61"
"$GPRMC,143645.000,A,4700.5062,N,00735.3693,E,3.43,292.28,050914,,,A*6D"
"$GPRMC,143646.000,A,4700.5065,N,00735.3679,E,3.43,296.43,050914,,,A*64"
"$GPRMC,143647.000,A,4700.5068,N,00735.3665,E,3.41,295.53,050914,,,A*65"
"$GPRMC,143648.000,A,4700.5070,N,00735.3650,E,3.57,294.37,050914,,,A*61"
"$GPRMC,143649.000,A,4700.5073,N,00735.3635,E,3.92,288.24,050914,,,A*66"
"$GPRMC,143650.000,A,4700.5075,N,00735.3618,E,4.34,281.10,050914,,,A*62"
"$GPRMC,143651.000,A,4700.5076,N,00735.3599,E,4.58,272.71,050914,,,A*6B"
"$GPRMC,143652.000,A,4700.5074,N,00735.3580,E,4.35,260.88,050914,,,A*6C"
"$GPRMC,143653.000,A,4700.5069,N,00735.3563,E,4.49,236.42,050914,,,A*62"
"$GPRMC,143654.000,A,4700.5060,N,00735.3547,E,4.50,229.03,050914,,,A*69"
"$GPRMC,143655.000,A,4700.5053,N,00735.3534,E,3.58,234.15,050914,,,A*68"
"$GPRMC,143656.000,A,4700.5046,N,00735.3523,E,3.56,220.64,050914,,,A*64"
"$GPRMC,143657.000,A,4700.5037,N,00735.3514,E,3.74,211.12,050914,,,A*64"
"$GPRMC,143658.000,A,4700.5027,N,00735.3506,E,3.81,208.75,050914,,,A*6A"
"$GPRMC,143659.000,A,4700.5015,N,00735.3498,E,4.45,205.53,050914,,,A*6A"
"$GPRMC,143700.000,A,4700.5001,N,00735.3490,E,4.65,204.19,050914,,,A*67"
"$GPRMC,143701.000,A,4700.4987,N,00735.3482,E,4.93,203.21,050914,,,A*66"
"$GPRMC,143702.000,A,4700.4973,N,00735.3473,E,4.98,202.17,050914,,,A*6F"
"$GPRMC,143703.000,A,4700.4958,N,00735.3465,E,4.95,202.68,050914,,,A*65"
"$GPRMC,143704.000,A,4700.4944,N,00735.3457,E,5.00,202.93,050914,,,A*67"
"$GPRMC,143705.000,A,4700.4929,N,00735.3449,E,5.02,202.68,050914,,,A*64"
"$GPRMC,143706.000,A,4700.4915,N,00735.3441,E,4.78,203.86,050914,,,A*6D"
"$GPRMC,143707.000,A,4700.4902,N,00735.3434,E,4.52,205.05,050914,,,A*6D"
"$GPRMC,143708.000,A,4700.4890,N,00735.3426,E,4.37,206.30,050914,,,A*6D"
"$GPRMC,143709.000,A,4700.4879,N,00735.3417,E,4.21,208.20,050914,,,A*61"
"$GPRMC,143710.000,A,4700.4868,N,00735.3409,E,4.19,208.17,050914,,,A*69"
"$GPRMC,143711.000,A,4700.4856,N,00735.3401,E,4.35,206.55,050914,,,A*6B"
"$GPRMC,143712.000,A,4700.4844,N,00735.3393,E,4.59,206.07,050914,,,A*6A"
"$GPRMC,143713.000,A,4700.4831,N,00735.3385,E,4.79,204.92,050914,,,A*62"
"$GPRMC,143714.000,A,4700.4818,N,00735.3376,E,5.05,203.59,050914,,,A*68"
"$GPRMC,143715.000,A,4700.4804,N,00735.3368,E,5.20,202.47,050914,,,A*62"
"$GPRMC,143716.000,A,4700.4790,N,00735.3360,E,5.13,202.16,050914,,,A*6F"
"$GPRMC,143717.000,A,4700.4776,N,00735.3352,E,5.18,202.54,050914,,,A*6A"
"$GPRMC,143718.000,A,4700.4762,N,00735.3343,E,5.32,204.32,050914,,,A*6E"
"$GPRMC,143719.000,A,4700.4748,N,00735.3334,E,5.15,206.17,050914,,,A*67"
"$GPRMC,143720.000,A,4700.4735,N,00735.3325,E,5.06,205.22,050914,,,A*60"
"$GPRMC,143721.000,A,4700.4721,N,00735.3316,E,5.17,204.49,050914,,,A*68"
"$GPRMC,143722.000,A,4700.4707,N,00735.3308,E,5.12,202.81,050914,,,A*67"
"$GPRMC,143723.000,A,4700.4693,N,00735.3300,E,5.25,201.88,050914,,,A*6C"
"$GPRMC,143724.000,A,4700.4679,N,00735.3292,E,5.13,200.99,050914,,,A*61"
"$GPRMC,143725.000,A,4700.4666,N,00735.3285,E,4.93,200.98,050914,,,A*60"
"$GPRMC,143726.000,A,4700.4653,N,00735.3278,E,4.72,200.17,050914,,,A*6F"
"$GPRMC,143727.000,A,4700.4640,N,00735.3272,E,4.72,198.20,050914,,,A*60"
"$GPRMC,143728.000,A,4700.4627,N,00735.3267,E,4.52,195.68,050914,,,A*69"
"$GPRMC,143729.000,A,4700.4615,N,00735.3262,E,4.37,193.48,050914,,,A*6B"
"$GPRMC,143730.000,A,4700.4602,N,00735.3258,E,4.41,192.49,050914,,,A*6D"
"$GPRMC,143731.000,A,4700.4590,N,00735.3255,E,4.20,192.79,050914,,,A*6D"
"$GPRMC,143732.000,A,4700.4578,N,00735.3251,E,4.18,191.23,050914,,,A*6B"
"$GPRMC,143733.000,A,4700.4567,N,00735.3248,E,4.04,191.32,050914,,,A*61"
"$GPRMC,143734.000,A,4700.4555,N,00735.3245,E,4.06,189.69,050914,,,A*6F"
"$GPRMC,143735.000,A,4700.4544,N,00735.3242,E,4.06,190.12,050914,,,A*6D"
"$GPRMC,143736.000,A,4700.4533,N,00735.3240,E,4.08,188.32,050914,,,A*69"
"$GPRMC,143737.000,A,4700.4521,N,00735.3237,E,4.07,187.89,050914,,,A*6B"
"$GPRMC,143738.000,A,4700.4510,N,00735.3235,E,3.88,188.64,050914,,,A*68"
"$GPRMC,143739.000,A,4700.4498,N,00735.3233,E,4.11,186.95,050914,,,A*69"
"$GPRMC,143740.000,A,4700.4487,N,00735.3231,E,4.00,187.47,050914,,,A*65"
"$GPRMC,143741.000,A,4700.4476,N,00735.3228,E,3.48,188.13,050914,,,A*67"
"$GPRMC,143742.000,A,4700.4468,N,00735.3226,E,2.84,189.17,050914,,,A*61"
"$GPRMC,143743.000,A,4700.4460,N,00735.3225,E,2.71,188.27,050914,,,A*63"
"$GPRMC,143744.000,A,4700.4452,N,00735.3223,E,2.91,184.90,050914,,,A*6D"
"$GPRMC,143745.000,A,4700.4444,N,00735.3222,E,2.71,183.03,050914,,,A*69"
"$GPRMC,143746.000,A,4700.4436,N,00735.3221,E,2.81,183.63,050914,,,A*65"
"$GPRMC,143747.000,A,4700.4429,N,00735.3220,E,2.66,184.30,050914,,,A*63"
"$GPRMC,143748.000,A,4700.4422,N,00735.3220,E,2.71,183.87,050914,,,A*6A"
"$GPRMC,143749.000,A,4700.4414,N,00735.3219,E,2.71,183.50,050914,,,A*6E"
"$GPRMC,143750.000,A,4700.4407,N,00735.3218,E,2.59,182.91,050914,,,A*63"
"$GPRMC,143751.000,A,4700.4400,N,00735.3217,E,2.54,184.20,050914,,,A*6B"
"$GPRMC,143752.000,A,4700.4393,N,00735.3216,E,2.71,182.78,050914,,,A*68"
"$GPRMC,143753.000,A,4700.4385,N,00735.3216,E,2.79,182.13,050914,,,A*6B"
"$GPRMC,143754.000,A,4700.4378,N,00735.3215,E,2.56,184.01,050914,,,A*65"
"$GPRMC,143755.000,A,4700.4372,N,00735.3214,E,0.00,184.01,050914,,,A*6E"
"$GPRMC,143756.000,A,4700.4366,N,00735.3213,E,2.35,182.34,050914,,,A*6B"
"$GPRMC,143757.000,A,4700.4359,N,00735.3212,E,2.34,181.97,050914,,,A*6C"
"$GPRMC,143758.000,A,4700.4353,N,00735.3211,E,0.00,181.97,050914,,,A*6F"
"$GPRMC,143759.000,A,4700.4347,N,00735.3211,E,0.00,181.97,050914,,,A*6B"
"$GPRMC,143800.000,A,4700.4343,N,00735.3209,E,0.00,181.97,050914,,,A*65"
"$GPRMC,143801.000,A,4700.4339,N,00735.3206,E,0.00,181.97,050914,,,A*66"
"$GPRMC,143802.000,A,4700.4336,N,00735.3204,E,0.00,181.97,050914,,,A*68"
"$GPRMC,143803.000,A,4700.4335,N,00735.3200,E,0.00,181.97,050914,,,A*6E"
"$GPRMC,143804.000,A,4700.4334,N,00735.3195,E,0.00,181.97,050914,,,A*67"
"$GPRMC,143805.000,A,4700.4334,N,00735.3187,E,0.00,181.97,050914,,,A*65"
"$GPRMC,143806.000,A,4700.4336,N,00735.3178,E,2.55,291.09,050914,,,A*63"
"$GPRMC,143807.000,A,4700.4340,N,00735.3168,E,2.73,296.04,050914,,,A*6C"
"$GPRMC,143808.000,A,4700.4344,N,00735.3158,E,2.78,294.23,050914,,,A*68"
"$GPRMC,143809.000,A,4700.4348,N,00735.3147,E,2.80,299.52,050914,,,A*67"
"$GPRMC,143810.000,A,4700.4353,N,00735.3136,E,2.80,296.51,050914,,,A*6F"
"$GPRMC,143811.000,A,4700.4357,N,00735.3125,E,2.73,299.72,050914,,,A*6A"
"$GPRMC,143812.000,A,4700.4362,N,00735.3115,E,2.74,298.30,050914,,,A*6C"
"$GPRMC,143813.000,A,4700.4366,N,00735.3104,E,2.83,296.00,050914,,,A*6C"
"$GPRMC,143814.000,A,4700.4370,N,00735.3093,E,2.83,296.42,050914,,,A*65"
"$GPRMC,143815.000,A,4700.4374,N,00735.3082,E,2.75,296.81,050914,,,A*66"
"$GPRMC,143816.000,A,4700.4378,N,00735.3072,E,2.68,297.42,050914,,,A*64"
"$GPRMC,143817.000,A,4700.4382,N,00735.3062,E,2.68,298.02,050914,,,A*6A"
"$GPRMC,143818.000,A,4700.4386,N,00735.3051,E,2.55,297.38,050914,,,A*69"
"$GPRMC,143819.000,A,4700.4390,N,00735.3041,E,2.58,297.50,050914,,,A*6D"
"$GPRMC,143820.000,A,4700.4393,N,00735.3031,E,2.55,295.08,050914,,,A*61"
"$GPRMC,143821.000,A,4700.4397,N,00735.3020,E,3.40,295.89,050914,,,A*68"
"$GPRMC,143822.000,A,4700.4402,N,00735.3007,E,3.39,296.73,050914,,,A*6D"
"$GPRMC,143823.000,A,4700.4406,N,00735.2995,E,3.30,297.00,050914,,,A*67"
"$GPRMC,143824.000,A,4700.4410,N,00735.2983,E,3.11,295.82,050914,,,A*6B"
"$GPRMC,143825.000,A,4700.4414,N,00735.2971,E,3.15,295.36,050914,,,A*68"
"$GPRMC,143826.000,A,4700.4418,N,00735.2960,E,3.13,296.58,050914,,,A*6A"
"$GPRMC,143827.000,A,4700.4421,N,00735.2948,E,3.14,295.73,050914,,,A*66"
"$GPRMC,143828.000,A,4700.4425,N,00735.2937,E,2.99,297.93,050914,,,A*6D"
"$GPRMC,143829.000,A,4700.4429,N,00735.2926,E,3.04,297.12,050914,,,A*6C"
"$GPRMC,143830.000,A,4700.4433,N,00735.2915,E,3.24,299.17,050914,,,A*66"
"$GPRMC,143831.000,A,4700.4438,N,00735.2903,E,3.16,298.68,050914,,,A*63"
"$GPRMC,143832.000,A,4700.4442,N,00735.2892,E,3.05,296.80,050914,,,A*6E"
"$GPRMC,143833.000,A,4700.4446,N,00735.2881,E,3.17,298.77,050914,,,A*6C"
"$GPRMC,143834.000,A,4700.4450,N,00735.2869,E,2.95,296.73,050914,,,A*6B"
"$GPRMC,143835.000,A,4700.4454,N,00735.2858,E,3.04,297.00,050914,,,A*60"
"$GPRMC,143836.000,A,4700.4458,N,00735.2847,E,2.83,295.77,050914,,,A*6D"
"$GPRMC,143837.000,A,4700.4462,N,00735.2835,E,3.16,297.18,050914,,,A*66"
"$GPRMC,143838.000,A,4700.4466,N,00735.2824,E,3.12,296.91,050914,,,A*69"
"$GPRMC,143839.000,A,4700.4470,N,00735.2812,E,3.19,296.29,050914,,,A*62"
"$GPRMC,143840.000,A,4700.4474,N,00735.2799,E,3.40,296.68,050914,,,A*6D"
"$GPRMC,143841.000,A,4700.4479,N,00735.2785,E,3.79,294.83,050914,,,A*61"
"$GPRMC,143842.000,A,4700.4483,N,00735.2772,E,3.58,297.95,050914,,,A*68"
"$GPRMC,143843.000,A,4700.4489,N,00735.2757,E,4.20,297.34,050914,,,A*67"
"$GPRMC,143844.000,A,4700.4494,N,00735.2742,E,4.33,297.60,050914,,,A*6B"
"$GPRMC,143845.000,A,4700.4500,N,00735.2726,E,4.55,297.22,050914,,,A*62"
"$GPRMC,143846.000,A,4700.4505,N,00735.2710,E,4.29,297.15,050914,,,A*6E"
"$GPRMC,143847.000,A,4700.4511,N,00735.2694,E,4.27,296.87,050914,,,A*63"
"$GPRMC,143848.000,A,4700.4516,N,00735.2679,E,4.14,297.62,050914,,,A*62"
"$GPRMC,143849.000,A,4700.4521,N,00735.2663,E,4.14,294.50,050914,,,A*6E"
"$GPRMC,143850.000,A,4700.4526,N,00735.2648,E,4.42,294.65,050914,,,A*6D"
"$GPRMC,143851.000,A,4700.4531,N,00735.2632,E,4.40,295.79,050914,,,A*69"
"$GPRMC,143852.000,A,4700.4537,N,00735.2615,E,4.63,295.27,050914,,,A*63"
"$GPRMC,143853.000,A,4700.4542,N,00735.2598,E,4.46,296.59,050914,,,A*6B"
"$GPRMC,143854.000,A,4700.4548,N,00735.2583,E,3.89,297.07,050914,,,A*62"
"$GPRMC,143855.000,A,4700.4553,N,00735.2569,E,3.94,296.02,050914,,,A*65"
"$GPRMC,143856.000,A,4700.4558,N,00735.2555,E,3.70,297.01,050914,,,A*6A"
"$GPRMC,143857.000,A,4700.4562,N,00735.2542,E,3.34,297.28,050914,,,A*6F"
"$GPRMC,143858.000,A,4700.4567,N,00735.2530,E,3.36,297.68,050914,,,A*66"
"$GPRMC,143859.000,A,4700.4571,N,00735.2518,E,3.35,297.54,050914,,,A*66"
"$GPRMC,143900.000,A,4700.4576,N,00735.2505,E,3.34,297.04,050914,,,A*64"
"$GPRMC,143901.000,A,4700.4580,N,00735.2493,E,3.35,296.97,050914,,,A*68"
"$GPRMC,143902.000,A,4700.4585,N,00735.2481,E,3.44,297.59,050914,,,A*68"
"$GPRMC,143903.000,A,4700.4589,N,00735.2469,E,3.40,296.94,050914,,,A*67"
"$GPRMC,143904.000,A,4700.4593,N,00735.2457,E,3.28,296.60,050914,,,A*63"
"$GPRMC,143905.000,A,4700.4597,N,00735.2445,E,3.31,297.05,050914,,,A*6F"
"$GPRMC,143906.000,A,4700.4602,N,00735.2433,E,3.31,295.78,050914,,,A*6A"
"$GPRMC,143907.000,A,4700.4606,N,00735.2421,E,3.17,297.62,050914,,,A*61"
"$GPRMC,143908.000,A,4700.4610,N,00735.2410,E,3.04,297.39,050914,,,A*67"
"$GPRMC,143909.000,A,4700.4614,N,00735.2399,E,2.92,298.16,050914,,,A*68"
"$GPRMC,143910.000,A,4700.4618,N,00735.2388,E,2.98,295.38,050914,,,A*67"
"$GPRMC,143911.000,A,4700.4622,N,00735.2377,E,2.93,296.85,050914,,,A*61"
"$GPRMC,143912.000,A,4700.4626,N,00735.2366,E,3.02,296.57,050914,,,A*60"
"$GPRMC,143913.000,A,4700.4628,N,00735.2354,E,3.03,296.14,050914,,,A*68"
"$GPRMC,143914.000,A,4700.4632,N,00735.2343,E,3.13,298.20,050914,,,A*6A"
"$GPRMC,143915.000,A,4700.4635,N,00735.2330,E,3.70,295.44,050914,,,A*62"
"$GPRMC,143916.000,A,4700.4639,N,00735.2316,E,3.95,297.54,050914,,,A*61"
"$GPRMC,143917.000,A,4700.4645,N,00735.2301,E,4.65,296.61,050914,,,A*62"
"$GPRMC,143918.000,A,4700.4650,N,00735.2284,E,4.47,295.14,050914,,,A*64"
"$GPRMC,143919.000,A,4700.4656,N,00735.2268,E,4.18,296.12,050914,,,A*6E"
"$GPRMC,143920.000,A,4700.4660,N,00735.2254,E,3.85,297.33,050914,,,A*6F"
"$GPRMC,143921.000,A,4700.4665,N,00735.2240,E,3.44,297.16,050914,,,A*64"
"$GPRMC,143922.000,A,4700.4668,N,00735.2228,E,3.12,296.09,050914,,,A*68"
"$GPRMC,143923.000,A,4700.4671,N,00735.2217,E,3.08,295.66,050914,,,A*6C"
"$GPRMC,143924.000,A,4700.4675,N,00735.2206,E,2.97,297.93,050914,,,A*60"
"$GPRMC,143925.000,A,4700.4678,N,00735.2195,E,2.92,297.83,050914,,,A*61"
"$GPRMC,143926.000,A,4700.4681,N,00735.2185,E,2.97,296.32,050914,,,A*6B"
"$GPRMC,143927.000,A,4700.4685,N,00735.2173,E,3.10,296.24,050914,,,A*6E"
"$GPRMC,143928.000,A,4700.4689,N,00735.2162,E,3.10,295.68,050914,,,A*66"
"$GPRMC,143929.000,A,4700.4693,N,00735.2151,E,3.12,298.29,050914,,,A*66"
"$GPRMC,143930.000,A,4700.4696,N,00735.2139,E,3.28,296.72,050914,,,A*6C"
"$GPRMC,143931.000,A,4700.4701,N,00735.2127,E,3.22,298.43,050914,,,A*6B"
"$GPRMC,143932.000,A,4700.4704,N,00735.2115,E,3.22,297.05,050914,,,A*61"
"$GPRMC,143933.000,A,4700.4708,N,00735.2104,E,3.23,296.56,050914,,,A*6A"
"$GPRMC,143934.000,A,4700.4711,N,00735.2092,E,3.08,296.48,050914,,,A*6D"
"$GPRMC,143935.000,A,4700.4714,N,00735.2081,E,3.07,296.72,050914,,,A*6D"
"$GPRMC,143936.000,A,4700.4718,N,00735.2069,E,3.04,296.00,050914,,,A*62"
"$GPRMC,143936.900,A,4700.4721,N,00735.2058,E,2.91,296.51,050914,,,A*6A"
"$GPRMC,143938.000,A,4700.4724,N,00735.2048,E,2.96,298.17,050914,,,A*62"
"$GPRMC,143939.000,A,4700.4727,N,00735.2037,E,2.87,298.41,050914,,,A*6B"
"$GPRMC,143940.000,A,4700.4731,N,00735.2027,E,2.87,298.12,050914,,,A*65"
"$GPRMC,143941.000,A,4700.4734,N,00735.2016,E,2.80,297.91,050914,,,A*60"
"$GPRMC,143942.000,A,4700.4737,N,00735.2006,E,2.75,297.02,050914,,,A*61"
"$GPRMC,143943.000,A,4700.4739,N,00735.1996,E,2.65,296.64,050914,,,A*6D"
"$GPRMC,143944.000,A,4700.4742,N,00735.1986,E,2.56,296.33,050914,,,A*65"
"$GPRMC,143945.000,A,4700.4744,N,00735.1977,E,2.44,298.11,050914,,,A*61"
"$GPRMC,143946.000,A,4700.4746,N,00735.1968,E,2.58,297.99,050914,,,A*6C"
"$GPRMC,143947.000,A,4700.4750,N,00735.1958,E,2.69,301.42,050914,,,A*63"
"$GPRMC,143948.000,A,4700.4754,N,00735.1948,E,2.68,297.36,050914,,,A*65"
"$GPRMC,143949.000,A,4700.4758,N,00735.1938,E,2.69,297.75,050914,,,A*69"
"$GPRMC,143950.000,A,4700.4763,N,00735.1928,E,2.92,306.45,050914,,,A*66"
"$GPRMC,143951.000,A,4700.4768,N,00735.1919,E,2.92,307.66,050914,,,A*6E"
"$GPRMC,143952.000,A,4700.4772,N,00735.1909,E,2.69,308.97,050914,,,A*62"
"$GPRMC,143953.000,A,4700.4776,N,00735.1901,E,2.57,303.31,050914,,,A*65"
"$GPRMC,143954.000,A,4700.4779,N,00735.1892,E,2.37,291.73,050914,,,A*6C"
"$GPRMC,143955.000,A,4700.4780,N,00735.1883,E,0.00,291.73,050914,,,A*6D"
"$GPRMC,143956.000,A,4700.4779,N,00735.1875,E,0.00,291.73,050914,,,A*61"
"$GPRMC,143957.000,A,4700.4776,N,00735.1869,E,0.00,291.73,050914,,,A*62"
"$GPRMC,143958.000,A,4700.4773,N,00735.1865,E,0.00,291.73,050914,,,A*64"
"$GPRMC,143959.000,A,4700.4771,N,00735.1863,E,0.00,291.73,050914,,,A*61"
"$GPRMC,144000.000,A,4700.4768,N,00735.1863,E,0.00,291.73,050914,,,A*6B"
"$GPRMC,144001.000,A,4700.4764,N,00735.1863,E,0.00,291.73,050914,,,A*66"
"$GPRMC,144002.000,A,4700.4760,N,00735.1865,E,0.00,291.73,050914,,,A*67"
"$GPRMC,144003.000,A,4700.4757,N,00735.1869,E,0.00,291.73,050914,,,A*6E"
"$GPRMC,144004.000,A,4700.4753,N,00735.1874,E,0.00,291.73,050914,,,A*61"
"$GPRMC,144005.000,A,4700.4750,N,00735.1881,E,0.00,291.73,050914,,,A*69"
"$GPRMC,144006.000,A,4700.4749,N,00735.1890,E,2.47,92.67,050914,,,A*57"
"$GPRMC,144007.000,A,4700.4747,N,00735.1900,E,0.00,92.67,050914,,,A*51"
"$GPRMC,144008.000,A,4700.4745,N,00735.1910,E,2.58,99.93,050914,,,A*52"
"$GPRMC,144009.000,A,4700.4743,N,00735.1920,E,2.81,105.92,050914,,,A*67"
"$GPRMC,144010.000,A,4700.4740,N,00735.1931,E,2.59,108.08,050914,,,A*67"
"$GPRMC,144011.000,A,4700.4737,N,00735.1941,E,2.76,112.12,050914,,,A*6C"
"$GPRMC,144012.000,A,4700.4733,N,00735.1952,E,2.97,113.46,050914,,,A*66"
"$GPRMC,144013.000,A,4700.4729,N,00735.1963,E,2.90,114.71,050914,,,A*6A"
"$GPRMC,144014.000,A,4700.4725,N,00735.1974,E,2.96,116.56,050914,,,A*66"
"$GPRMC,144015.000,A,4700.4721,N,00735.1985,E,3.05,114.52,050914,,,A*60"
"$GPRMC,144016.000,A,4700.4717,N,00735.1996,E,2.82,112.81,050914,,,A*62"
"$GPRMC,144017.000,A,4700.4713,N,00735.2007,E,2.77,110.47,050914,,,A*67"
"$GPRMC,144018.000,A,4700.4710,N,00735.2017,E,2.83,112.70,050914,,,A*67"
"$GPRMC,144019.000,A,4700.4706,N,00735.2030,E,3.65,112.54,050914,,,A*6B"
"$GPRMC,144020.000,A,4700.4701,N,00735.2044,E,3.77,114.15,050914,,,A*65"
"$GPRMC,144021.000,A,4700.4696,N,00735.2058,E,4.21,114.03,050914,,,A*65"
"$GPRMC,144022.000,A,4700.4691,N,00735.2075,E,4.49,115.33,050914,,,A*62"
"$GPRMC,144023.000,A,4700.4685,N,00735.2091,E,4.45,114.40,050914,,,A*65"
"$GPRMC,144024.000,A,4700.4680,N,00735.2108,E,4.36,114.59,050914,,,A*6A"
"$GPRMC,144025.000,A,4700.4674,N,00735.2124,E,4.42,114.48,050914,,,A*6D"
"$GPRMC,144026.000,A,4700.4669,N,00735.2140,E,4.20,113.53,050914,,,A*69"
"$GPRMC,144027.000,A,4700.4664,N,00735.2155,E,4.00,112.79,050914,,,A*6A"
"$GPRMC,144028.000,A,4700.4659,N,00735.2170,E,3.71,113.74,050914,,,A*61"
"$GPRMC,144029.000,A,4700.4655,N,00735.2182,E,3.24,112.32,050914,,,A*62"
"$GPRMC,144030.000,A,4700.4651,N,00735.2195,E,3.19,112.32,050914,,,A*66"
"$GPRMC,144031.000,A,4700.4648,N,00735.2208,E,3.62,109.54,050914,,,A*6E"
"$GPRMC,144032.000,A,4700.4644,N,00735.2221,E,3.05,111.80,050914,,,A*6B"
"$GPRMC,144033.000,A,4700.4641,N,00735.2232,E,2.95,110.73,050914,,,A*68"
"$GPRMC,144034.000,A,4700.4637,N,00735.2244,E,3.16,112.30,050914,,,A*60"
"$GPRMC,144035.000,A,4700.4634,N,00735.2255,E,2.78,111.70,050914,,,A*6C"
"$GPRMC,144036.000,A,4700.4631,N,00735.2265,E,2.83,112.44,050914,,,A*69"
"$GPRMC,144037.000,A,4700.4627,N,00735.2276,E,2.86,112.48,050914,,,A*64"
"$GPRMC,144038.000,A,4700.4624,N,00735.2287,E,2.82,114.42,050914,,,A*6E"
"$GPRMC,144039.000,A,4700.4620,N,00735.2298,E,2.86,113.63,050914,,,A*65"
"$GPRMC,144040.000,A,4700.4617,N,00735.2309,E,2.94,111.84,050914,,,A*6E"
"$GPRMC,144041.000,A,4700.4614,N,00735.2320,E,2.73,112.66,050914,,,A*61"
"$GPRMC,144042.000,A,4700.4611,N,00735.2331,E,3.04,111.88,050914,,,A*65"
"$GPRMC,144043.000,A,4700.4606,N,00735.2349,E,6.14,110.69,050914,,,A*67"
"$GPRMC,144044.000,A,4700.4599,N,00735.2375,E,7.74,112.17,050914,,,A*66"
"$GPRMC,144045.000,A,4700.4589,N,00735.2405,E,8.48,113.86,050914,,,A*6F"
"$GPRMC,144046.000,A,4700.4579,N,00735.2436,E,7.79,117.20,050914,,,A*66"
"$GPRMC,144047.000,A,4700.4569,N,00735.2465,E,7.99,115.51,050914,,,A*6A"
"$GPRMC,144048.000,A,4700.4560,N,00735.2492,E,6.62,115.12,050914,,,A*66"
"$GPRMC,144049.000,A,4700.4553,N,00735.2513,E,5.21,115.06,050914,,,A*6E"
"$GPRMC,144050.000,A,4700.4547,N,00735.2530,E,3.95,115.14,050914,,,A*68"
"$GPRMC,144051.000,A,4700.4544,N,00735.2540,E,0.00,115.14,050914,,,A*62"
"$GPRMC,144052.000,A,4700.4542,N,00735.2543,E,0.00,115.14,050914,,,A*64"
"$GPRMC,144053.000,A,4700.4543,N,00735.2543,E,0.00,115.14,050914,,,A*64"
"$GPRMC,144054.000,A,4700.4543,N,00735.2541,E,0.00,115.14,050914,,,A*61"
"$GPRMC,144055.000,A,4700.4543,N,00735.2540,E,0.00,115.14,050914,,,A*61"
"$GPRMC,144056.000,A,4700.4543,N,00735.2540,E,0.00,115.14,050914,,,A*62"
"$GPRMC,144057.000,A,4700.4543,N,00735.2540,E,0.00,115.14,050914,,,A*63"
"$GPRMC,144058.000,A,4700.4543,N,00735.2540,E,0.00,115.14,050914,,,A*6C"
"$GPRMC,144059.000,A,4700.4543,N,00735.2541,E,0.00,115.14,050914,,,A*6C"
"$GPRMC,144100.000,A,4700.4543,N,00735.2541,E,0.00,115.14,050914,,,A*61"
"$GPRMC,144101.000,A,4700.4542,N,00735.2541,E,0.00,115.14,050914,,,A*61"
"$GPRMC,144102.000,A,4700.4542,N,00735.2541,E,0.00,115.14,050914,,,A*62"
"$GPRMC,144103.000,A,4700.4542,N,00735.2541,E,0.00,115.14,050914,,,A*63"
"$GPRMC,144104.000,A,4700.4542,N,00735.2541,E,0.00,115.14,050914,,,A*64"
"$GPRMC,144105.000,A,4700.4542,N,00735.2540,E,0.00,115.14,050914,,,A*64"
"$GPRMC,144106.000,A,4700.4542,N,00735.2540,E,0.00,115.14,050914,,,A*67"
"$GPRMC,144107.000,A,4700.4542,N,00735.2539,E,0.00,115.14,050914,,,A*68"
"$GPRMC,144108.000,A,4700.4543,N,00735.2540,E,0.00,115.14,050914,,,A*68"
"$GPRMC,144109.000,A,4700.4543,N,00735.2540,E,0.00,115.14,050914,,,A*69"
"$GPRMC,144110.000,A,4700.4544,N,00735.2540,E,0.00,115.14,050914,,,A*66"
"$GPRMC,144111.000,A,4700.4542,N,00735.2543,E,0.00,115.14,050914,,,A*62"
"$GPRMC,144112.000,A,4700.4540,N,00735.2551,E,2.96,114.26,050914,,,A*6D"
"$GPRMC,144113.000,A,4700.4536,N,00735.2563,E,3.03,115.01,050914,,,A*65"
"$GPRMC,144114.000,A,4700.4532,N,00735.2576,E,3.43,114.77,050914,,,A*66"
"$GPRMC,144115.000,A,4700.4528,N,00735.2589,E,3.32,114.38,050914,,,A*61"
"$GPRMC,144116.000,A,4700.4525,N,00735.2602,E,3.23,112.46,050914,,,A*60"
"$GPRMC,144117.000,A,4700.4522,N,00735.2614,E,2.95,109.49,050914,,,A*68"
"$GPRMC,144118.000,A,4700.4519,N,00735.2626,E,3.16,112.48,050914,,,A*6F"
"$GPRMC,144119.000,A,4700.4514,N,00735.2637,E,2.99,116.76,050914,,,A*6C"
"$GPRMC,144120.000,A,4700.4510,N,00735.2647,E,2.75,120.94,050914,,,A*6E"
"$GPRMC,144121.000,A,4700.4507,N,00735.2659,E,3.08,111.76,050914,,,A*63"
"$GPRMC,144122.000,A,4700.4503,N,00735.2670,E,3.01,114.63,050914,,,A*67"
"$GPRMC,144123.000,A,4700.4500,N,00735.2681,E,2.76,117.93,050914,,,A*66"
"$GPRMC,144124.000,A,4700.4496,N,00735.2692,E,2.92,112.92,050914,,,A*63"
"$GPRMC,144125.000,A,4700.4494,N,00735.2704,E,3.06,108.55,050914,,,A*62"
"$GPRMC,144126.000,A,4700.4492,N,00735.2716,E,2.97,109.66,050914,,,A*6C"
"$GPRMC,144127.000,A,4700.4489,N,00735.2728,E,2.95,106.90,050914,,,A*6E"
"$GPRMC,144128.000,A,4700.4487,N,00735.2739,E,2.82,110.36,050914,,,A*62"
"$GPRMC,144129.000,A,4700.4484,N,00735.2750,E,2.91,114.41,050914,,,A*69"
"$GPRMC,144130.000,A,4700.4481,N,00735.2760,E,3.06,107.48,050914,,,A*63"
"$GPRMC,144131.000,A,4700.4478,N,00735.2770,E,2.89,111.66,050914,,,A*68"
"$GPRMC,144132.000,A,4700.4474,N,00735.2780,E,2.51,114.05,050914,,,A*6D"
"$GPRMC,144133.000,A,4700.4471,N,00735.2789,E,2.59,119.57,050914,,,A*62"
"$GPRMC,144134.000,A,4700.4468,N,00735.2800,E,2.97,104.43,050914,,,A*68"
"$GPRMC,144135.000,A,4700.4465,N,00735.2810,E,2.68,110.81,050914,,,A*6E"
"$GPRMC,144136.000,A,4700.4462,N,00735.2819,E,2.43,109.60,050914,,,A*6D"
"$GPRMC,144137.000,A,4700.4459,N,00735.2829,E,2.86,116.71,050914,,,A*60"
"$GPRMC,144138.000,A,4700.4456,N,00735.2839,E,2.82,107.38,050914,,,A*68"
"$GPRMC,144139.000,A,4700.4454,N,00735.2848,E,2.61,116.31,050914,,,A*69"
"$GPRMC,144140.000,A,4700.4451,N,00735.2856,E,0.00,116.31,050914,,,A*68"
"$GPRMC,144141.000,A,4700.4448,N,00735.2864,E,2.47,118.48,050914,,,A*61"
"$GPRMC,144142.000,A,4700.4445,N,00735.2873,E,2.61,120.86,050914,,,A*64"
"$GPRMC,144143.000,A,4700.4442,N,00735.2883,E,2.62,118.36,050914,,,A*6E"
"$GPRMC,144144.000,A,4700.4441,N,00735.2892,E,2.49,112.55,050914,,,A*6C"
"$GPRMC,144145.000,A,4700.4440,N,00735.2902,E,2.56,112.17,050914,,,A*6C"
"$GPRMC,144146.000,A,4700.4438,N,00735.2912,E,2.53,112.85,050914,,,A*6F"
"$GPRMC,144147.000,A,4700.4436,N,00735.2921,E,2.66,112.97,050914,,,A*65"
"$GPRMC,144148.000,A,4700.4435,N,00735.2930,E,2.60,112.10,050914,,,A*60"
"$GPRMC,144149.000,A,4700.4433,N,00735.2940,E,2.51,112.99,050914,,,A*63"
"$GPRMC,144150.000,A,4700.4430,N,00735.2949,E,2.55,113.42,050914,,,A*62"
"$GPRMC,144151.000,A,4700.4428,N,00735.2959,E,2.42,109.70,050914,,,A*67"
"$GPRMC,144152.000,A,4700.4427,N,00735.2968,E,2.57,110.21,050914,,,A*61"
"$GPRMC,144153.000,A,4700.4424,N,00735.2978,E,2.62,110.70,050914,,,A*60"
"$GPRMC,144154.000,A,4700.4422,N,00735.2987,E,2.55,111.20,050914,,,A*61"
"$GPRMC,144155.000,A,4700.4420,N,00735.2996,E,2.57,112.23,050914,,,A*60"
"$GPRMC,144156.000,A,4700.4418,N,00735.3005,E,2.48,111.04,050914,,,A*62"
"$GPRMC,144157.000,A,4700.4415,N,00735.3015,E,2.60,115.88,050914,,,A*65"
"$GPRMC,144158.000,A,4700.4412,N,00735.3025,E,2.50,111.47,050914,,,A*6A"
"$GPRMC,144159.000,A,4700.4409,N,00735.3036,E,2.84,115.96,050914,,,A*62"
"$GPRMC,144200.000,A,4700.4405,N,00735.3047,E,2.68,112.15,050914,,,A*69"
"$GPRMC,144201.000,A,4700.4402,N,00735.3057,E,2.68,113.38,050914,,,A*60"
"$GPRMC,144202.000,A,4700.4399,N,00735.3067,E,2.74,113.61,050914,,,A*64"
"$GPRMC,144203.000,A,4700.4396,N,00735.3078,E,2.66,112.27,050914,,,A*64"
"$GPRMC,144204.000,A,4700.4393,N,00735.3088,E,2.73,114.18,050914,,,A*67"
"$GPRMC,144205.000,A,4700.4390,N,00735.3098,E,2.70,113.40,050914,,,A*6D"
"$GPRMC,144206.000,A,4700.4387,N,00735.3108,E,2.71,115.06,050914,,,A*65"
"$GPRMC,144207.000,A,4700.4384,N,00735.3118,E,2.61,114.26,050914,,,A*64"
"$GPRMC,144208.000,A,4700.4381,N,00735.3128,E,2.64,116.79,050914,,,A*60"
"$GPRMC,144209.000,A,4700.4377,N,00735.3139,E,2.73,117.03,050914,,,A*62"
"$GPRMC,144210.000,A,4700.4374,N,00735.3149,E,2.51,114.94,050914,,,A*63"
"$GPRMC,144211.000,A,4700.4371,N,00735.3158,E,2.59,114.69,050914,,,A*6D"
"$GPRMC,144212.000,A,4700.4369,N,00735.3166,E,0.00,114.69,050914,,,A*64"
"$GPRMC,144213.000,A,4700.4367,N,00735.3175,E,0.00,114.69,050914,,,A*69"
"$GPRMC,144214.000,A,4700.4364,N,00735.3183,E,0.00,114.69,050914,,,A*64"
"$GPRMC,144215.000,A,4700.4361,N,00735.3192,E,0.00,114.69,050914,,,A*60"
"$GPRMC,144216.000,A,4700.4359,N,00735.3202,E,2.45,108.80,050914,,,A*6B"
"$GPRMC,144217.000,A,4700.4356,N,00735.3211,E,0.00,108.80,050914,,,A*64"
"$GPRMC,144218.000,A,4700.4354,N,00735.3218,E,0.00,108.80,050914,,,A*60"
"$GPRMC,144219.000,A,4700.4351,N,00735.3219,E,0.00,108.80,050914,,,A*65"
"$GPRMC,144220.000,A,4700.4349,N,00735.3219,E,0.00,108.80,050914,,,A*66"
"$GPRMC,144221.000,A,4700.4348,N,00735.3219,E,0.00,108.80,050914,,,A*66"
"$GPRMC,144222.000,A,4700.4346,N,00735.3219,E,0.00,108.80,050914,,,A*6B"
"$GPRMC,144223.000,A,4700.4344,N,00735.3218,E,0.00,108.80,050914,,,A*69"
"$GPRMC,144224.000,A,4700.4342,N,00735.3216,E,0.00,108.80,050914,,,A*66"
"$GPRMC,144225.000,A,4700.4340,N,00735.3214,E,0.00,108.80,050914,,,A*67"
"$GPRMC,144226.000,A,4700.4339,N,00735.3211,E,0.00,108.80,050914,,,A*6F"
"$GPRMC,144227.000,A,4700.4339,N,00735.3209,E,0.00,108.80,050914,,,A*67"
"$GPRMC,144228.000,A,4700.4339,N,00735.3205,E,0.00,108.80,050914,,,A*64"
"$GPRMC,144229.000,A,4700.4340,N,00735.3199,E,0.00,108.80,050914,,,A*6D"
"$GPRMC,144230.000,A,4700.4343,N,00735.3190,E,2.71,307.45,050914,,,A*6F"
"$GPRMC,144231.000,A,4700.4346,N,00735.3179,E,2.89,300.90,050914,,,A*64"
"$GPRMC,144232.000,A,4700.4349,N,00735.3168,E,2.82,299.77,050914,,,A*6B"
"$GPRMC,144233.000,A,4700.4351,N,00735.3158,E,2.75,297.83,050914,,,A*6D"
"$GPRMC,144234.000,A,4700.4353,N,00735.3146,E,2.92,294.75,050914,,,A*64"
"$GPRMC,144235.000,A,4700.4355,N,00735.3134,E,2.75,293.88,050914,,,A*6A"
"$GPRMC,144236.000,A,4700.4357,N,00735.3123,E,2.74,293.80,050914,,,A*64"
"$GPRMC,144237.000,A,4700.4359,N,00735.3112,E,2.76,296.69,050914,,,A*69"
"$GPRMC,144238.000,A,4700.4362,N,00735.3100,E,2.85,290.78,050914,,,A*67"
"$GPRMC,144239.000,A,4700.4364,N,00735.3088,E,3.08,290.76,050914,,,A*6B"
"$GPRMC,144240.000,A,4700.4367,N,00735.3075,E,2.98,295.26,050914,,,A*6C"
"$GPRMC,144241.000,A,4700.4370,N,00735.3064,E,2.77,292.55,050914,,,A*69"
"$GPRMC,144242.000,A,4700.4373,N,00735.3053,E,2.91,295.55,050914,,,A*62"
"$GPRMC,144243.000,A,4700.4376,N,00735.3042,E,2.81,292.45,050914,,,A*61"
"$GPRMC,144244.000,A,4700.4379,N,00735.3031,E,2.92,295.00,050914,,,A*69"
"$GPRMC,144245.000,A,4700.4382,N,00735.3020,E,2.88,296.76,050914,,,A*65"
"$GPRMC,144246.000,A,4700.4386,N,00735.3009,E,2.86,298.44,050914,,,A*68"
"$GPRMC,144247.000,A,4700.4389,N,00735.2999,E,2.82,294.01,050914,,,A*6E"
"$GPRMC,144248.000,A,4700.4392,N,00735.2988,E,2.75,291.42,050914,,,A*61"
"$GPRMC,144249.000,A,4700.4396,N,00735.2978,E,2.82,297.54,050914,,,A*62"
"$GPRMC,144250.000,A,4700.4400,N,00735.2967,E,2.81,296.96,050914,,,A*60"
"$GPRMC,144251.000,A,4700.4403,N,00735.2957,E,2.72,295.00,050914,,,A*61"
"$GPRMC,144252.000,A,4700.4406,N,00735.2947,E,2.51,295.21,050914,,,A*64"
"$GPRMC,144253.000,A,4700.4410,N,00735.2938,E,2.55,295.76,050914,,,A*6C"
"$GPRMC,144254.000,A,4700.4413,N,00735.2928,E,2.67,295.14,050914,,,A*6C"
"$GPRMC,144255.000,A,4700.4416,N,00735.2918,E,2.69,295.55,050914,,,A*60"
"$GPRMC,144256.000,A,4700.4419,N,00735.2907,E,2.63,296.39,050914,,,A*61"
"$GPRMC,144257.000,A,4700.4423,N,00735.2898,E,2.67,293.96,050914,,,A*6A"
"$GPRMC,144258.000,A,4700.4426,N,00735.2888,E,2.63,297.01,050914,,,A*6F"
"$GPRMC,144259.000,A,4700.4429,N,00735.2878,E,2.70,294.40,050914,,,A*6A"
"$GPRMC,144300.000,A,4700.4433,N,00735.2868,E,2.78,299.24,050914,,,A*6A"
"$GPRMC,144301.000,A,4700.4437,N,00735.2857,E,3.01,298.49,050914,,,A*66"
"$GPRMC,144302.000,A,4700.4442,N,00735.2845,E,3.08,297.10,050914,,,A*6E"
"$GPRMC,144303.000,A,4700.4445,N,00735.2834,E,3.09,292.66,050914,,,A*6B"
"$GPRMC,144304.000,A,4700.4450,N,00735.2821,E,3.53,297.37,050914,,,A*62"
"$GPRMC,144305.000,A,4700.4454,N,00735.2808,E,3.44,293.84,050914,,,A*66"
"$GPRMC,144306.000,A,4700.4458,N,00735.2794,E,3.29,294.74,050914,,,A*60"
"$GPRMC,144307.000,A,4700.4462,N,00735.2782,E,3.35,294.11,050914,,,A*61"
"$GPRMC,144308.000,A,4700.4466,N,00735.2768,E,3.48,293.58,050914,,,A*6E"
"$GPRMC,144309.000,A,4700.4470,N,00735.2755,E,3.54,292.15,050914,,,A*63"
"$GPRMC,144310.000,A,4700.4475,N,00735.2742,E,3.40,296.80,050914,,,A*65"
"$GPRMC,144311.000,A,4700.4480,N,00735.2729,E,3.28,298.45,050914,,,A*6A"
"$GPRMC,144312.000,A,4700.4484,N,00735.2717,E,3.21,298.56,050914,,,A*6B"
"$GPRMC,144313.000,A,4700.4488,N,00735.2706,E,3.04,293.83,050914,,,A*62"
"$GPRMC,144314.000,A,4700.4492,N,00735.2693,E,3.55,294.52,050914,,,A*6C"
"$GPRMC,144315.000,A,4700.4496,N,00735.2681,E,3.06,290.23,050914,,,A*6E"
"$GPRMC,144316.000,A,4700.4499,N,00735.2669,E,3.42,295.52,050914,,,A*67"
"$GPRMC,144317.000,A,4700.4503,N,00735.2656,E,3.26,290.02,050914,,,A*6A"
"$GPRMC,144318.000,A,4700.4507,N,00735.2644,E,3.17,292.92,050914,,,A*6B"
"$GPRMC,144319.000,A,4700.4510,N,00735.2633,E,2.80,292.27,050914,,,A*6D"
"$GPRMC,144320.000,A,4700.4513,N,00735.2622,E,3.27,294.40,050914,,,A*6F"
"$GPRMC,144321.000,A,4700.4517,N,00735.2610,E,3.06,297.41,050914,,,A*6A"
"$GPRMC,144322.000,A,4700.4521,N,00735.2599,E,3.14,298.25,050914,,,A*60"
"$GPRMC,144323.000,A,4700.4524,N,00735.2589,E,2.97,295.96,050914,,,A*6A"
"$GPRMC,144324.000,A,4700.4528,N,00735.2578,E,3.18,296.32,050914,,,A*64"
"$GPRMC,144325.000,A,4700.4532,N,00735.2566,E,3.26,297.40,050914,,,A*68"
"$GPRMC,144326.000,A,4700.4535,N,00735.2555,E,3.19,294.81,050914,,,A*6E"
"$GPRMC,144327.000,A,4700.4539,N,00735.2543,E,3.11,299.78,050914,,,A*67"
"$GPRMC,144328.000,A,4700.4543,N,00735.2532,E,3.10,297.87,050914,,,A*6C"
"$GPRMC,144329.000,A,4700.4546,N,00735.2521,E,2.95,295.85,050914,,,A*66"
"$GPRMC,144330.000,A,4700.4549,N,00735.2510,E,2.96,295.60,050914,,,A*6B"
"$GPRMC,144331.000,A,4700.4552,N,00735.2499,E,3.23,297.11,050914,,,A*6B"
"$GPRMC,144332.000,A,4700.4556,N,00735.2486,E,3.25,295.85,050914,,,A*6B"
"$GPRMC,144333.000,A,4700.4561,N,00735.2475,E,3.04,299.26,050914,,,A*64"
"$GPRMC,144334.000,A,4700.4565,N,00735.2464,E,3.20,295.49,050914,,,A*64"
"$GPRMC,144335.000,A,4700.4568,N,00735.2453,E,3.04,295.75,050914,,,A*65"
"$GPRMC,144336.000,A,4700.4571,N,00735.2442,E,2.99,295.44,050914,,,A*69"
"$GPRMC,144337.000,A,4700.4574,N,00735.2431,E,3.01,293.11,050914,,,A*6F"
"$GPRMC,144338.000,A,4700.4577,N,00735.2419,E,2.88,293.67,050914,,,A*68"
"$GPRMC,144339.000,A,4700.4580,N,00735.2409,E,2.93,291.79,050914,,,A*67"
"$GPRMC,144340.000,A,4700.4583,N,00735.2398,E,2.80,291.89,050914,,,A*68"
