"$GPRMC,130337.455,A,4700.5263,N,00735.1662,E,0.00,354.28,291014,,,A*6B"
"$GPRMC,130338.455,A,4700.5208,N,00735.1699,E,0.00,354.28,291014,,,A*6D"
"$GPRMC,130339.455,A,4700.5213,N,00735.1681,E,0.00,354.28,291014,,,A*6F"
"$GPRMC,130340.455,A,4700.5252,N,00735.1674,E,0.00,354.28,291014,,,A*6E"
"$GPRMC,130341.455,A,4700.5282,N,00735.1671,E,0.00,354.28,291014,,,A*67"
"$GPRMC,130342.455,A,4700.5243,N,00735.1681,E,0.00,354.28,291014,,,A*66"
"$GPRMC,130343.455,A,4700.5232,N,00735.1679,E,0.00,354.28,291014,,,A*66"
"$GPRMC,130353.455,A,4700.5295,N,00735.1658,E,0.00,354.28,291014,,,A*69"
"$GPRMC,130354.455,A,4700.5296,N,00735.1659,E,0.00,354.28,291014,,,A*6C"
"$GPRMC,130355.455,A,4700.5298,N,00735.1659,E,0.00,354.28,291014,,,A*63"
"$GPRMC,130356.455,A,4700.5299,N,00735.1658,E,0.00,354.28,291014,,,A*60"
"$GPRMC,130357.455,A,4700.5298,N,00735.1657,E,0.00,354.28,291014,,,A*6F"
"$GPRMC,130358.455,A,4700.5299,N,00735.1657,E,0.00,354.28,291014,,,A*61"
"$GPRMC,130359.455,A,4700.5300,N,00735.1657,E,0.00,354.28,291014,,,A*61"
"$GPRMC,130400.455,A,4700.5275,N,00735.1661,E,0.00,354.28,291014,,,A*6C"
"$GPRMC,130402.455,A,4700.5308,N,00735.1659,E,0.00,354.28,291014,,,A*6E"
"$GPRMC,130403.455,A,4700.5319,N,00735.1657,E,0.00,354.28,291014,,,A*61"
"$GPRMC,130404.455,A,4700.5370,N,00735.1649,E,0.00,354.28,291014,,,A*66"
"$GPRMC,130405.455,A,4700.5364,N,00735.1649,E,0.00,354.28,291014,,,A*62"
"$GPRMC,130406.455,A,4700.5365,N,00735.1648,E,0.00,354.28,291014,,,A*61"
"$GPRMC,130407.455,A,4700.5357,N,00735.1648,E,0.00,354.28,291014,,,A*61"
"$GPRMC,130408.455,A,4700.5347,N,00735.1649,E,0.00,354.28,291014,,,A*6E"
"$GPRMC,130409.455,A,4700.5288,N,00735.1658,E,4.96,353.32,291014,,,A*6A"
"$GPRMC,130410.455,A,4700.5268,N,00735.1661,E,0.00,353.32,291014,,,A*6D"
"$GPRMC,130411.455,A,4700.5342,N,00735.1649,E,0.00,353.32,291014,,,A*6F"
"$GPRMC,130412.455,A,4700.5399,N,00735.1638,E,0.00,353.32,291014,,,A*6C"
"$GPRMC,130413.455,A,4700.5341,N,00735.1647,E,0.00,353.32,291014,,,A*60"
"$GPRMC,130414.455,A,4700.5317,N,00735.1649,E,0.00,353.32,291014,,,A*6A"
"$GPRMC,130415.455,A,4700.5319,N,00735.1648,E,0.00,353.32,291014,,,A*64"
"$GPRMC,130416.455,A,4700.5317,N,00735.1647,E,0.00,353.32,291014,,,A*66"
"$GPRMC,130417.455,A,4700.5273,N,00735.1653,E,0.00,353.32,291014,,,A*61"
"$GPRMC,130418.455,A,4700.5272,N,00735.1652,E,0.00,353.32,291014,,,A*6E"
"$GPRMC,130419.455,A,4700.5275,N,00735.1651,E,0.00,353.32,291014,,,A*6B"
"$GPRMC,130420.455,A,4700.5307,N,00735.1645,E,0.00,353.32,291014,,,A*60"
"$GPRMC,130421.455,A,4700.5280,N,00735.1649,E,0.00,353.32,291014,,,A*63"
"$GPRMC,130422.455,A,4700.5247,N,00735.1654,E,3.63,176.01,291014,,,A*64"
"$GPRMC,130423.455,A,4700.5282,N,00735.1647,E,0.00,176.01,291014,,,A*68"
"$GPRMC,130424.455,A,4700.5291,N,00735.1645,E,0.00,176.01,291014,,,A*6F"
"$GPRMC,130425.455,A,4700.5309,N,00735.1642,E,0.00,176.01,291014,,,A*69"
"$GPRMC,130426.455,A,4700.5298,N,00735.1644,E,0.00,176.01,291014,,,A*65"
"$GPRMC,130427.455,A,4700.5307,N,00735.1641,E,0.00,176.01,291014,,,A*66"
"$GPRMC,130428.455,A,4700.5343,N,00735.1634,E,0.00,176.01,291014,,,A*6B"
"$GPRMC,130429.455,A,4700.5310,N,00735.1638,E,0.00,176.01,291014,,,A*60"
"$GPRMC,130430.455,A,4700.5322,N,00735.1635,E,0.00,176.01,291014,,,A*64"
"$GPRMC,130431.455,A,4700.5328,N,00735.1633,E,0.00,176.01,291014,,,A*69"
"$GPRMC,130432.455,A,4700.5271,N,00735.1643,E,2.38,175.78,291014,,,A*64"
"$GPRMC,130433.455,A,4700.5289,N,00735.1639,E,0.00,175.78,291014,,,A*66"
"$GPRMC,130434.455,A,4700.5318,N,00735.1632,E,0.00,175.78,291014,,,A*63"
"$GPRMC,130435.455,A,4700.5283,N,00735.1638,E,0.00,175.78,291014,,,A*6B"
"$GPRMC,130436.455,A,4700.5289,N,00735.1636,E,0.00,175.78,291014,,,A*6C"
"$GPRMC,130437.455,A,4700.5381,N,00735.1620,E,0.00,175.78,291014,,,A*63"
"$GPRMC,130438.455,A,4700.5326,N,00735.1629,E,0.00,175.78,291014,,,A*68"
"$GPRMC,130439.455,A,4700.5388,N,00735.1618,E,0.00,175.78,291014,,,A*6F"
"$GPRMC,130440.455,A,4700.5325,N,00735.1628,E,0.00,175.78,291014,,,A*65"
"$GPRMC,130441.455,A,4700.5254,N,00735.1640,E,0.00,175.78,291014,,,A*6D"
"$GPRMC,130442.455,A,4700.5267,N,00735.1637,E,0.00,175.78,291014,,,A*6E"
"$GPRMC,130443.455,A,4700.5350,N,00735.1622,E,3.60,351.58,291014,,,A*6D"
"$GPRMC,130444.455,A,4700.5350,N,00735.1622,E,0.00,351.58,291014,,,A*6F"
"$GPRMC,130445.455,A,4700.5441,N,00735.1606,E,2.62,350.94,291014,,,A*68"
"$GPRMC,130446.455,A,4700.5358,N,00735.1620,E,0.00,350.94,291014,,,A*66"
"$GPRMC,130447.455,A,4700.5312,N,00735.1627,E,0.00,350.94,291014,,,A*6E"
"$GPRMC,130448.455,A,4700.5378,N,00735.1615,E,0.00,350.94,291014,,,A*6C"
"$GPRMC,130449.455,A,4700.5354,N,00735.1619,E,0.00,350.94,291014,,,A*6F"
"$GPRMC,130450.455,A,4700.5343,N,00735.1621,E,0.00,350.94,291014,,,A*6A"
"$GPRMC,130451.455,A,4700.5373,N,00735.1615,E,0.00,350.94,291014,,,A*6F"
"$GPRMC,130452.455,A,4700.5419,N,00735.1606,E,0.00,350.94,291014,,,A*65"
"$GPRMC,130453.455,A,4700.5379,N,00735.1611,E,0.00,350.94,291014,,,A*63"
"$GPRMC,130454.455,A,4700.5318,N,00735.1621,E,0.00,350.94,291014,,,A*60"
"$GPRMC,130455.455,A,4700.5309,N,00735.1623,E,0.00,350.94,291014,,,A*63"
"$GPRMC,130456.455,A,4700.5340,N,00735.1616,E,0.00,350.94,291014,,,A*6B"
"$GPRMC,130457.455,A,4700.5296,N,00735.1624,E,0.00,350.94,291014,,,A*61"
"$GPRMC,130458.455,A,4700.5362,N,00735.1555,E,0.00,350.94,291014,,,A*61"
"$GPRMC,130459.455,V,4700.5362,N,00735.1555,E,,,291014,,,N*73"
"$GPRMC,130500.455,A,4700.5342,N,00735.1597,E,3.48,193.87,291014,,,A*61"
"$GPRMC,130501.455,A,4700.5304,N,00735.1634,E,5.12,168.13,291014,,,A*68"
"$GPRMC,130502.455,A,4700.5371,N,00735.1665,E,4.40,172.45,291014,,,A*63"
"$GPRMC,130503.455,A,4700.5439,N,00735.1595,E,6.49,175.14,291014,,,A*6D"
"$GPRMC,130504.455,A,4700.5465,N,00735.1560,E,5.63,176.82,291014,,,A*6E"
"$GPRMC,130505.455,A,4700.5359,N,00735.1599,E,4.27,176.01,291014,,,A*6B"
"$GPRMC,130506.455,A,4700.5347,N,00735.1615,E,0.00,176.01,291014,,,A*61"
"$GPRMC,130507.455,A,4700.5338,N,00735.1611,E,0.00,176.01,291014,,,A*6C"
"$GPRMC,130508.455,A,4700.5319,N,00735.1593,E,0.00,176.01,291014,,,A*69"
"$GPRMC,130509.455,A,4700.5339,N,00735.1626,E,6.14,345.90,291014,,,A*6E"
"$GPRMC,130510.455,A,4700.5348,N,00735.1659,E,5.11,353.08,291014,,,A*68"
"$GPRMC,130511.455,A,4700.5390,N,00735.1665,E,3.53,359.62,291014,,,A*65"
"$GPRMC,130512.455,A,4700.5515,N,00735.1617,E,0.00,359.62,291014,,,A*6D"
"$GPRMC,130513.455,A,4700.5452,N,00735.1624,E,0.00,359.62,291014,,,A*6E"
"$GPRMC,130514.455,A,4700.5493,N,00735.1621,E,0.00,359.62,291014,,,A*61"
"$GPRMC,130515.455,A,4700.5558,N,00735.1630,E,2.63,186.24,291014,,,A*63"
"$GPRMC,130516.455,A,4700.5615,N,00735.1615,E,2.89,173.21,291014,,,A*66"
"$GPRMC,130517.455,A,4700.5607,N,00735.1550,E,2.43,165.36,291014,,,A*61"
"$GPRMC,130518.455,A,4700.5585,N,00735.1586,E,0.00,165.36,291014,,,A*69"
"$GPRMC,130519.455,A,4700.5624,N,00735.1583,E,0.00,165.36,291014,,,A*65"
"$GPRMC,130520.455,A,4700.5479,N,00735.1614,E,0.00,165.36,291014,,,A*68"
"$GPRMC,130521.455,A,4700.5459,N,00735.1619,E,0.00,165.36,291014,,,A*66"
"$GPRMC,130522.455,A,4700.5396,N,00735.1635,E,0.00,165.36,291014,,,A*6F"
"$GPRMC,130523.455,A,4700.5349,N,00735.1639,E,0.00,165.36,291014,,,A*60"
"$GPRMC,130524.455,A,4700.5397,N,00735.1625,E,0.00,165.36,291014,,,A*69"
"$GPRMC,130525.455,A,4700.5366,N,00735.1630,E,0.00,165.36,291014,,,A*62"
"$GPRMC,130526.455,A,4700.5351,N,00735.1636,E,0.00,165.36,291014,,,A*63"
"$GPRMC,130527.455,A,4700.5376,N,00735.1634,E,0.00,165.36,291014,,,A*65"
"$GPRMC,130528.455,A,4700.5374,N,00735.1633,E,0.00,165.36,291014,,,A*6F"
"$GPRMC,130529.455,A,4700.5168,N,00735.3905,E,0.00,165.36,291014,,,A*69"
"$GPRMC,130530.455,A,4700.5179,N,00735.4037,E,0.00,165.36,291014,,,A*6E"
"$GPRMC,130531.000,A,4700.5180,N,00735.4043,E,0.00,165.36,291014,,,A*6E"
"$GPRMC,130532.000,A,4700.5178,N,00735.4048,E,0.00,165.36,291014,,,A*61"
"$GPRMC,130533.000,A,4700.5176,N,00735.4050,E,0.00,165.36,291014,,,A*67"
"$GPRMC,130534.000,A,4700.5174,N,00735.4052,E,0.00,165.36,291014,,,A*60"
"$GPRMC,130535.000,A,4700.5172,N,00735.4055,E,0.00,165.36,291014,,,A*60"
"$GPRMC,130536.000,A,4700.5167,N,00735.4058,E,0.00,165.36,291014,,,A*6A"
"$GPRMC,130537.000,A,4700.5167,N,00735.4061,E,0.00,165.36,291014,,,A*61"
"$GPRMC,130538.000,A,4700.5165,N,00735.4062,E,0.00,165.36,291014,,,A*6F"
"$GPRMC,130539.000,A,4700.5156,N,00735.4068,E,0.00,165.36,291014,,,A*64"
"$GPRMC,130540.000,A,4700.5154,N,00735.4074,E,0.00,165.36,291014,,,A*65"
"$GPRMC,130541.000,A,4700.5142,N,00735.4078,E,2.51,178.65,291014,,,A*63"
"$GPRMC,130542.000,A,4700.5135,N,00735.4086,E,2.38,160.19,291014,,,A*6C"
"$GPRMC,130543.000,A,4700.5127,N,00735.4084,E,2.81,194.37,291014,,,A*69"
"$GPRMC,130544.000,A,4700.5118,N,00735.4077,E,2.93,183.63,291014,,,A*6A"
"$GPRMC,130545.000,A,4700.5120,N,00735.4070,E,0.00,183.63,291014,,,A*6F"
"$GPRMC,130546.000,A,4700.5115,N,00735.4069,E,0.00,183.63,291014,,,A*62"
"$GPRMC,130547.000,A,4700.5117,N,00735.4068,E,0.00,183.63,291014,,,A*60"
"$GPRMC,130548.000,A,4700.5122,N,00735.4064,E,0.00,183.63,291014,,,A*65"
"$GPRMC,130549.000,A,4700.5127,N,00735.4064,E,0.00,183.63,291014,,,A*61"
"$GPRMC,130550.000,A,4700.5129,N,00735.4065,E,0.00,183.63,291014,,,A*66"
"$GPRMC,130551.000,A,4700.5134,N,00735.4060,E,0.00,183.63,291014,,,A*6E"
"$GPRMC,130552.000,A,4700.5138,N,00735.4058,E,0.00,183.63,291014,,,A*6A"
"$GPRMC,130553.000,A,4700.5141,N,00735.4054,E,0.00,183.63,291014,,,A*69"
"$GPRMC,130554.000,A,4700.5142,N,00735.4046,E,0.00,183.63,291014,,,A*6E"
"$GPRMC,130555.000,A,4700.5144,N,00735.4029,E,2.68,272.75,291014,,,A*66"
"$GPRMC,130556.000,A,4700.5148,N,00735.4020,E,3.39,305.45,291014,,,A*67"
"$GPRMC,130557.000,A,4700.5155,N,00735.4010,E,2.87,320.42,291014,,,A*6D"
"$GPRMC,130558.000,A,4700.5166,N,00735.3996,E,3.73,308.80,291014,,,A*6C"
"$GPRMC,130559.000,A,4700.5175,N,00735.3981,E,4.09,301.41,291014,,,A*67"
"$GPRMC,130600.000,A,4700.5180,N,00735.3951,E,4.25,294.57,291014,,,A*6B"
"$GPRMC,130601.000,A,4700.5178,N,00735.3924,E,3.98,293.53,291014,,,A*6D"
"$GPRMC,130602.000,A,4700.5176,N,00735.3914,E,2.41,288.56,291014,,,A*69"
"$GPRMC,130603.000,A,4700.5173,N,00735.3900,E,0.00,288.56,291014,,,A*6F"
"$GPRMC,130604.000,A,4700.5171,N,00735.3888,E,0.00,288.56,291014,,,A*6B"
"$GPRMC,130605.000,A,4700.5170,N,00735.3875,E,0.00,288.56,291014,,,A*69"
"$GPRMC,130606.000,A,4700.5174,N,00735.3872,E,0.00,288.56,291014,,,A*69"
"$GPRMC,130607.000,A,4700.5180,N,00735.3867,E,0.00,288.56,291014,,,A*67"
"$GPRMC,130608.000,A,4700.5184,N,00735.3859,E,0.00,288.56,291014,,,A*61"
"$GPRMC,130609.000,A,4700.5188,N,00735.3852,E,0.00,288.56,291014,,,A*67"
"$GPRMC,130610.000,A,4700.5191,N,00735.3840,E,0.00,288.56,291014,,,A*64"
"$GPRMC,130611.000,A,4700.5195,N,00735.3830,E,0.00,288.56,291014,,,A*66"
"$GPRMC,130612.000,A,4700.5202,N,00735.3821,E,2.66,294.45,291014,,,A*65"
"$GPRMC,130613.000,A,4700.5209,N,00735.3810,E,3.24,297.17,291014,,,A*6E"
"$GPRMC,130614.000,A,4700.5218,N,00735.3799,E,3.32,293.44,291014,,,A*62"
"$GPRMC,130615.000,A,4700.5226,N,00735.3796,E,2.92,298.85,291014,,,A*6C"
"$GPRMC,130616.000,A,4700.5230,N,00735.3804,E,0.00,298.85,291014,,,A*65"
"$GPRMC,130617.000,A,4700.5235,N,00735.3819,E,0.00,298.85,291014,,,A*6D"
"$GPRMC,130618.000,A,4700.5235,N,00735.3833,E,0.00,298.85,291014,,,A*6A"
"$GPRMC,130619.000,A,4700.5231,N,00735.3850,E,0.00,298.85,291014,,,A*6A"
"$GPRMC,130620.000,A,4700.5226,N,00735.3862,E,0.00,298.85,291014,,,A*67"
"$GPRMC,130621.000,A,4700.5222,N,00735.3874,E,0.00,298.85,291014,,,A*65"
"$GPRMC,130622.000,A,4700.5221,N,00735.3880,E,0.00,298.85,291014,,,A*6E"
"$GPRMC,130623.000,A,4700.5223,N,00735.3881,E,0.00,298.85,291014,,,A*6C"
"$GPRMC,130624.000,A,4700.5221,N,00735.3886,E,0.00,298.85,291014,,,A*6E"
"$GPRMC,130625.000,A,4700.5224,N,00735.3883,E,0.00,298.85,291014,,,A*6F"
"$GPRMC,130626.000,A,4700.5224,N,00735.3886,E,0.00,298.85,291014,,,A*69"
"$GPRMC,130627.000,A,4700.5219,N,00735.3898,E,0.00,298.85,291014,,,A*69"
"$GPRMC,130628.000,A,4700.5219,N,00735.3902,E,0.00,298.85,291014,,,A*64"
"$GPRMC,130629.000,A,4700.5216,N,00735.3911,E,0.00,298.85,291014,,,A*68"
"$GPRMC,130630.000,A,4700.5213,N,00735.3922,E,0.00,298.85,291014,,,A*65"
"$GPRMC,130631.000,A,4700.5210,N,00735.3931,E,0.00,298.85,291014,,,A*65"
"$GPRMC,130632.000,A,4700.5204,N,00735.3947,E,3.51,116.71,291014,,,A*6B"
"$GPRMC,130633.000,A,4700.5197,N,00735.3965,E,4.10,117.81,291014,,,A*6F"
"$GPRMC,130634.000,A,4700.5193,N,00735.3979,E,4.56,116.30,291014,,,A*68"
"$GPRMC,130635.000,A,4700.5183,N,00735.4000,E,4.05,117.88,291014,,,A*6C"
"$GPRMC,130636.000,A,4700.5175,N,00735.4018,E,3.64,118.65,291014,,,A*63"
"$GPRMC,130637.000,A,4700.5168,N,00735.4034,E,0.00,118.65,291014,,,A*61"
"$GPRMC,130638.000,A,4700.5159,N,00735.4049,E,0.00,118.65,291014,,,A*66"
"$GPRMC,130639.000,A,4700.5155,N,00735.4057,E,0.00,118.65,291014,,,A*64"
"$GPRMC,130640.000,A,4700.5154,N,00735.4060,E,0.00,118.65,291014,,,A*6F"
"$GPRMC,130641.000,A,4700.5152,N,00735.4064,E,0.00,118.65,291014,,,A*6C"
"$GPRMC,130642.000,A,4700.5148,N,00735.4072,E,0.00,118.65,291014,,,A*63"
"$GPRMC,130643.000,A,4700.5144,N,00735.4081,E,0.00,118.65,291014,,,A*62"
"$GPRMC,130644.000,A,4700.5140,N,00735.4089,E,2.39,109.71,291014,,,A*64"
"$GPRMC,130645.000,A,4700.5135,N,00735.4089,E,2.35,112.75,291014,,,A*65"
"$GPRMC,130646.000,A,4700.5128,N,00735.4101,E,3.90,129.28,291014,,,A*65"
"$GPRMC,130647.000,A,4700.5124,N,00735.4109,E,3.10,125.29,291014,,,A*65"
"$GPRMC,130648.000,A,4700.5120,N,00735.4116,E,2.97,128.05,291014,,,A*6D"
"$GPRMC,130649.000,A,4700.5115,N,00735.4117,E,0.00,128.05,291014,,,A*67"
"$GPRMC,130650.000,A,4700.5110,N,00735.4121,E,0.00,128.05,291014,,,A*6F"
"$GPRMC,130651.000,A,4700.5102,N,00735.4131,E,0.00,128.05,291014,,,A*6C"
"$GPRMC,130652.000,A,4700.5108,N,00735.4131,E,0.00,128.05,291014,,,A*65"
"$GPRMC,130653.000,A,4700.5106,N,00735.4133,E,0.00,128.05,291014,,,A*68"
"$GPRMC,130654.000,A,4700.5104,N,00735.4132,E,0.00,128.05,291014,,,A*6C"
"$GPRMC,130655.000,A,4700.5106,N,00735.4130,E,0.00,128.05,291014,,,A*6D"
"$GPRMC,130656.000,A,4700.5109,N,00735.4125,E,0.00,128.05,291014,,,A*65"
"$GPRMC,130657.000,A,4700.5114,N,00735.4120,E,0.00,128.05,291014,,,A*6D"
"$GPRMC,130658.000,A,4700.5113,N,00735.4116,E,0.00,128.05,291014,,,A*60"
"$GPRMC,130659.000,A,4700.5117,N,00735.4108,E,0.00,128.05,291014,,,A*6A"
"$GPRMC,130700.000,A,4700.5126,N,00735.4097,E,0.00,128.05,291014,,,A*62"
"$GPRMC,130701.000,A,4700.5137,N,00735.4088,E,0.00,128.05,291014,,,A*6D"
"$GPRMC,130702.000,A,4700.5141,N,00735.4087,E,0.00,128.05,291014,,,A*60"
"$GPRMC,130703.000,A,4700.5149,N,00735.4080,E,0.00,128.05,291014,,,A*6E"
"$GPRMC,130704.000,A,4700.5159,N,00735.4064,E,0.00,128.05,291014,,,A*62"
"$GPRMC,130705.000,A,4700.5166,N,00735.4052,E,0.00,128.05,291014,,,A*6A"
"$GPRMC,130706.000,A,4700.5170,N,00735.4046,E,0.00,128.05,291014,,,A*6B"
"$GPRMC,130707.000,A,4700.5173,N,00735.4041,E,0.00,128.05,291014,,,A*6E"
"$GPRMC,130708.000,A,4700.5177,N,00735.4034,E,0.00,128.05,291014,,,A*67"
"$GPRMC,130709.000,A,4700.5179,N,00735.4032,E,0.00,128.05,291014,,,A*6E"
"$GPRMC,130710.000,A,4700.5182,N,00735.4025,E,0.00,128.05,291014,,,A*64"
"$GPRMC,130711.000,A,4700.5188,N,00735.4012,E,0.00,128.05,291014,,,A*6B"
"$GPRMC,130712.000,A,4700.5190,N,00735.4007,E,0.00,128.05,291014,,,A*65"
"$GPRMC,130713.000,A,4700.5192,N,00735.4000,E,0.00,128.05,291014,,,A*61"
"$GPRMC,130714.000,A,4700.5200,N,00735.3985,E,2.58,306.61,291014,,,A*6E"
"$GPRMC,130715.000,A,4700.5210,N,00735.3967,E,3.75,309.75,291014,,,A*66"
"$GPRMC,130716.000,A,4700.5215,N,00735.3961,E,0.00,309.75,291014,,,A*67"
"$GPRMC,130717.000,A,4700.5216,N,00735.3961,E,0.00,309.75,291014,,,A*65"
"$GPRMC,130718.000,A,4700.5221,N,00735.3953,E,0.00,309.75,291014,,,A*6F"
"$GPRMC,130719.000,A,4700.5219,N,00735.3957,E,0.00,309.75,291014,,,A*61"
"$GPRMC,130720.000,A,4700.5218,N,00735.3962,E,0.00,309.75,291014,,,A*6C"
"$GPRMC,130721.000,A,4700.5215,N,00735.3971,E,0.00,309.75,291014,,,A*62"
"$GPRMC,130722.000,A,4700.5214,N,00735.3975,E,0.00,309.75,291014,,,A*64"
"$GPRMC,130723.000,A,4700.5207,N,00735.3989,E,0.00,309.75,291014,,,A*64"
"$GPRMC,130724.000,A,4700.5205,N,00735.3993,E,0.00,309.75,291014,,,A*6A"
"$GPRMC,130725.000,A,4700.5204,N,00735.3996,E,0.00,309.75,291014,,,A*6F"
"$GPRMC,130726.000,A,4700.5205,N,00735.3996,E,0.00,309.75,291014,,,A*6D"
"$GPRMC,130727.000,A,4700.5205,N,00735.3997,E,0.00,309.75,291014,,,A*6D"
"$GPRMC,130728.000,A,4700.5203,N,00735.4004,E,0.00,309.75,291014,,,A*60"
"$GPRMC,130729.000,A,4700.5201,N,00735.4005,E,0.00,309.75,291014,,,A*62"
"$GPRMC,130730.000,A,4700.5200,N,00735.4006,E,0.00,309.75,291014,,,A*68"
"$GPRMC,130731.000,A,4700.5200,N,00735.4007,E,0.00,309.75,291014,,,A*68"
"$GPRMC,130732.000,A,4700.5202,N,00735.3998,E,0.00,309.75,291014,,,A*61"
"$GPRMC,130733.000,A,4700.5201,N,00735.4001,E,0.00,309.75,291014,,,A*6D"
"$GPRMC,130734.000,A,4700.5203,N,00735.3994,E,0.00,309.75,291014,,,A*6A"
"$GPRMC,130735.000,A,4700.5206,N,00735.3979,E,0.00,309.75,291014,,,A*6D"
"$GPRMC,130736.000,A,4700.5206,N,00735.3973,E,0.00,309.75,291014,,,A*64"
"$GPRMC,130737.000,A,4700.5206,N,00735.3968,E,0.00,309.75,291014,,,A*6F"
"$GPRMC,130738.000,A,4700.5205,N,00735.3964,E,0.00,309.75,291014,,,A*6F"
"$GPRMC,130739.000,A,4700.5202,N,00735.3960,E,0.00,309.75,291014,,,A*6D"
"$GPRMC,130740.000,A,4700.5202,N,00735.3958,E,0.00,309.75,291014,,,A*68"
"$GPRMC,130741.000,A,4700.5202,N,00735.3957,E,0.00,309.75,291014,,,A*66"
"$GPRMC,130742.000,A,4700.5202,N,00735.3957,E,0.00,309.75,291014,,,A*65"
"$GPRMC,130743.000,A,4700.5201,N,00735.3957,E,0.00,309.75,291014,,,A*67"
"$GPRMC,130744.000,A,4700.5201,N,00735.3955,E,0.00,309.75,291014,,,A*62"
"$GPRMC,130745.000,A,4700.5199,N,00735.3952,E,0.00,309.75,291014,,,A*66"
"$GPRMC,130746.000,A,4700.5195,N,00735.3952,E,0.00,309.75,291014,,,A*69"
"$GPRMC,130747.000,A,4700.5191,N,00735.3951,E,0.00,309.75,291014,,,A*6F"
"$GPRMC,130748.000,A,4700.5182,N,00735.3950,E,0.00,309.75,291014,,,A*63"
"$GPRMC,130749.000,A,4700.5175,N,00735.3950,E,0.00,309.75,291014,,,A*6A"
"$GPRMC,130750.000,A,4700.5178,N,00735.3947,E,0.00,309.75,291014,,,A*69"
"$GPRMC,130751.000,A,4700.5175,N,00735.3945,E,0.00,309.75,291014,,,A*67"
"$GPRMC,130752.000,A,4700.5176,N,00735.3941,E,0.00,309.75,291014,,,A*63"
"$GPRMC,130753.000,A,4700.5177,N,00735.3939,E,0.00,309.75,291014,,,A*6C"
"$GPRMC,130754.000,A,4700.5179,N,00735.3935,E,0.00,309.75,291014,,,A*69"
"$GPRMC,130755.000,A,4700.5182,N,00735.3930,E,0.00,309.75,291014,,,A*69"
"$GPRMC,130756.000,A,4700.5185,N,00735.3925,E,0.00,309.75,291014,,,A*69"
"$GPRMC,130757.000,A,4700.5190,N,00735.3925,E,0.00,309.75,291014,,,A*6C"
"$GPRMC,130758.000,A,4700.5198,N,00735.3927,E,0.00,309.75,291014,,,A*69"
"$GPRMC,130759.000,A,4700.5202,N,00735.3927,E,0.00,309.75,291014,,,A*68"
"$GPRMC,130800.000,A,4700.5205,N,00735.3927,E,0.00,309.75,291014,,,A*6C"
"$GPRMC,130801.000,A,4700.5208,N,00735.3927,E,0.00,309.75,291014,,,A*60"
"$GPRMC,130802.000,A,4700.5210,N,00735.3927,E,0.00,309.75,291014,,,A*6A"
"$GPRMC,130803.000,A,4700.5213,N,00735.3927,E,0.00,309.75,291014,,,A*68"
"$GPRMC,130804.000,A,4700.5215,N,00735.3926,E,0.00,309.75,291014,,,A*68"
"$GPRMC,130805.000,A,4700.5217,N,00735.3926,E,0.00,309.75,291014,,,A*6B"
"$GPRMC,130806.000,A,4700.5218,N,00735.3926,E,0.00,309.75,291014,,,A*67"
"$GPRMC,130807.000,A,4700.5219,N,00735.3926,E,0.00,309.75,291014,,,A*67"
"$GPRMC,130808.000,A,4700.5220,N,00735.3926,E,0.00,309.75,291014,,,A*62"
"$GPRMC,130809.000,A,4700.5220,N,00735.3926,E,0.00,309.75,291014,,,A*63"
"$GPRMC,130810.000,A,4700.5220,N,00735.3925,E,0.00,309.75,291014,,,A*68"
"$GPRMC,130811.000,A,4700.5221,N,00735.3925,E,0.00,309.75,291014,,,A*68"
"$GPRMC,130812.000,A,4700.5221,N,00735.3925,E,0.00,309.75,291014,,,A*6B"
"$GPRMC,130813.000,A,4700.5220,N,00735.3924,E,0.00,309.75,291014,,,A*6A"
"$GPRMC,130814.000,A,4700.5220,N,00735.3924,E,0.00,309.75,291014,,,A*6D"
"$GPRMC,130815.000,A,4700.5220,N,00735.3924,E,0.00,309.75,291014,,,A*6C"
"$GPRMC,130816.000,A,4700.5219,N,00735.3924,E,0.00,309.75,291014,,,A*65"
"$GPRMC,130817.000,A,4700.5219,N,00735.3923,E,0.00,309.75,291014,,,A*63"
"$GPRMC,130818.000,A,4700.5219,N,00735.3923,E,0.00,309.75,291014,,,A*6C"
"$GPRMC,130819.000,A,4700.5219,N,00735.3923,E,0.00,309.75,291014,,,A*6D"
"$GPRMC,130820.000,A,4700.5219,N,00735.3923,E,0.00,309.75,291014,,,A*67"
"$GPRMC,130821.000,A,4700.5219,N,00735.3923,E,0.00,309.75,291014,,,A*66"
"$GPRMC,130822.000,A,4700.5219,N,00735.3922,E,0.00,309.75,291014,,,A*64"
"$GPRMC,130823.000,A,4700.5219,N,00735.3922,E,0.00,309.75,291014,,,A*65"
"$GPRMC,130824.000,A,4700.5219,N,00735.3922,E,0.00,309.75,291014,,,A*62"
"$GPRMC,130825.000,A,4700.5219,N,00735.3922,E,0.00,309.75,291014,,,A*63"
"$GPRMC,130826.000,A,4700.5216,N,00735.3922,E,0.00,309.75,291014,,,A*6F"
"$GPRMC,130827.000,A,4700.5218,N,00735.3922,E,0.00,309.75,291014,,,A*60"
"$GPRMC,130828.000,A,4700.5226,N,00735.3923,E,0.00,309.75,291014,,,A*63"
"$GPRMC,130829.000,A,4700.5230,N,00735.3923,E,0.00,309.75,291014,,,A*65"
"$GPRMC,130830.000,A,4700.5233,N,00735.3923,E,0.00,309.75,291014,,,A*6E"
"$GPRMC,130831.000,A,4700.5236,N,00735.3924,E,0.00,309.75,291014,,,A*6D"
"$GPRMC,130832.000,A,4700.5237,N,00735.3925,E,0.00,309.75,291014,,,A*6E"
"$GPRMC,130833.000,A,4700.5234,N,00735.3926,E,0.00,309.75,291014,,,A*6F"
"$GPRMC,130834.000,A,4700.5235,N,00735.3927,E,0.00,309.75,291014,,,A*68"
"$GPRMC,130835.000,A,4700.5234,N,00735.3926,E,0.00,309.75,291014,,,A*69"
"$GPRMC,130836.000,A,4700.5233,N,00735.3925,E,0.00,309.75,291014,,,A*6E"
"$GPRMC,130837.000,A,4700.5233,N,00735.3924,E,0.00,309.75,291014,,,A*6E"
"$GPRMC,130838.000,A,4700.5233,N,00735.3922,E,0.00,309.75,291014,,,A*67"
"$GPRMC,130839.000,A,4700.5234,N,00735.3921,E,0.00,309.75,291014,,,A*62"
"$GPRMC,130840.000,A,4700.5236,N,00735.3919,E,0.00,309.75,291014,,,A*65"
"$GPRMC,130838.000,A,4700.5235,N,00735.3919,E,0.00,309.75,291014,,,A*69"
"$GPRMC,130839.000,A,4700.5233,N,00735.3920,E,0.00,309.75,291014,,,A*64"
"$GPRMC,130840.000,A,4700.5231,N,00735.3917,E,0.00,309.75,291014,,,A*6C"
"$GPRMC,130841.000,A,4700.5232,N,00735.3917,E,0.00,309.75,291014,,,A*6E"
"$GPRMC,130842.000,A,4700.5232,N,00735.3915,E,0.00,309.75,291014,,,A*6F"
"$GPRMC,130843.000,A,4700.5234,N,00735.3911,E,0.00,309.75,291014,,,A*6C"
"$GPRMC,130844.000,A,4700.5238,N,00735.3910,E,0.00,309.75,291014,,,A*66"
"$GPRMC,130845.000,A,4700.5238,N,00735.3914,E,0.00,309.75,291014,,,A*63"
"$GPRMC,130846.000,A,4700.5239,N,00735.3912,E,0.00,309.75,291014,,,A*67"
"$GPRMC,130847.000,A,4700.5235,N,00735.3913,E,0.00,309.75,291014,,,A*6B"
"$GPRMC,130848.000,A,4700.5234,N,00735.3911,E,0.00,309.75,291014,,,A*67"
"$GPRMC,130849.000,A,4700.5233,N,00735.3910,E,0.00,309.75,291014,,,A*60"
"$GPRMC,130850.000,A,4700.5231,N,00735.3911,E,0.00,309.75,291014,,,A*6B"
"$GPRMC,130851.000,A,4700.5229,N,00735.3911,E,0.00,309.75,291014,,,A*63"
"$GPRMC,130852.000,A,4700.5227,N,00735.3911,E,0.00,309.75,291014,,,A*6E"
"$GPRMC,130853.000,A,4700.5225,N,00735.3915,E,0.00,309.75,291014,,,A*69"
"$GPRMC,130854.000,A,4700.5224,N,00735.3917,E,0.00,309.75,291014,,,A*6D"
"$GPRMC,130855.000,A,4700.5223,N,00735.3919,E,0.00,309.75,291014,,,A*65"
"$GPRMC,130856.000,A,4700.5220,N,00735.3922,E,0.00,309.75,291014,,,A*6D"
"$GPRMC,130857.000,A,4700.5218,N,00735.3923,E,0.00,309.75,291014,,,A*66"
"$GPRMC,130858.000,A,4700.5215,N,00735.3924,E,0.00,309.75,291014,,,A*63"
"$GPRMC,130859.000,A,4700.5212,N,00735.3925,E,0.00,309.75,291014,,,A*64"
"$GPRMC,130900.000,A,4700.5209,N,00735.3923,E,0.00,309.75,291014,,,A*65"
"$GPRMC,130901.000,A,4700.5206,N,00735.3921,E,0.00,309.75,291014,,,A*69"
"$GPRMC,130902.000,A,4700.5205,N,00735.3915,E,0.00,309.75,291014,,,A*6E"
"$GPRMC,130903.000,A,4700.5204,N,00735.3910,E,0.00,309.75,291014,,,A*6B"
"$GPRMC,130904.000,A,4700.5203,N,00735.3902,E,0.00,309.75,291014,,,A*68"
"$GPRMC,130905.000,A,4700.5200,N,00735.3895,E,0.00,309.75,291014,,,A*65"
"$GPRMC,130906.000,A,4700.5199,N,00735.3892,E,0.00,309.75,291014,,,A*62"
"$GPRMC,130907.000,A,4700.5199,N,00735.3891,E,0.00,309.75,291014,,,A*60"
"$GPRMC,130908.000,A,4700.5199,N,00735.3891,E,0.00,309.75,291014,,,A*6F"
"$GPRMC,130909.000,A,4700.5200,N,00735.3893,E,0.00,309.75,291014,,,A*6F"
"$GPRMC,130910.000,A,4700.5201,N,00735.3894,E,0.00,309.75,291014,,,A*61"
"$GPRMC,130911.000,A,4700.5201,N,00735.3894,E,0.00,309.75,291014,,,A*60"
"$GPRMC,130912.000,A,4700.5199,N,00735.3897,E,0.00,309.75,291014,,,A*62"
"$GPRMC,130913.000,A,4700.5197,N,00735.3898,E,0.00,309.75,291014,,,A*62"
"$GPRMC,130914.000,A,4700.5196,N,00735.3901,E,0.00,309.75,291014,,,A*65"
"$GPRMC,130915.000,A,4700.5194,N,00735.3903,E,0.00,309.75,291014,,,A*64"
"$GPRMC,130916.000,A,4700.5192,N,00735.3905,E,0.00,309.75,291014,,,A*67"
"$GPRMC,130917.000,A,4700.5190,N,00735.3906,E,0.00,309.75,291014,,,A*67"
"$GPRMC,130918.000,A,4700.5190,N,00735.3907,E,0.00,309.75,291014,,,A*69"
"$GPRMC,130919.000,A,4700.5189,N,00735.3909,E,0.00,309.75,291014,,,A*6E"
"$GPRMC,130920.000,A,4700.5189,N,00735.3909,E,0.00,309.75,291014,,,A*64"
"$GPRMC,130921.000,A,4700.5190,N,00735.3909,E,0.00,309.75,291014,,,A*6D"
"$GPRMC,130922.000,A,4700.5190,N,00735.3909,E,0.00,309.75,291014,,,A*6E"
"$GPRMC,130923.000,A,4700.5191,N,00735.3909,E,0.00,309.75,291014,,,A*6E"
"$GPRMC,130924.000,A,4700.5192,N,00735.3910,E,0.00,309.75,291014,,,A*62"
"$GPRMC,130925.000,A,4700.5193,N,00735.3911,E,0.00,309.75,291014,,,A*63"
"$GPRMC,130926.000,A,4700.5193,N,00735.3912,E,0.00,309.75,291014,,,A*63"
"$GPRMC,130927.000,A,4700.5194,N,00735.3912,E,0.00,309.75,291014,,,A*65"
"$GPRMC,130928.000,A,4700.5195,N,00735.3912,E,0.00,309.75,291014,,,A*6B"
"$GPRMC,130929.000,A,4700.5197,N,00735.3913,E,0.00,309.75,291014,,,A*69"
"$GPRMC,130930.000,A,4700.5197,N,00735.3913,E,0.00,309.75,291014,,,A*61"
"$GPRMC,130931.000,A,4700.5198,N,00735.3914,E,0.00,309.75,291014,,,A*68"
"$GPRMC,130932.000,A,4700.5198,N,00735.3914,E,0.00,309.75,291014,,,A*6B"
"$GPRMC,130933.000,A,4700.5199,N,00735.3912,E,0.00,309.75,291014,,,A*6D"
"$GPRMC,130934.000,A,4700.5198,N,00735.3912,E,0.00,309.75,291014,,,A*6B"
"$GPRMC,130935.000,A,4700.5196,N,00735.3912,E,0.00,309.75,291014,,,A*64"
"$GPRMC,130936.000,A,4700.5195,N,00735.3912,E,0.00,309.75,291014,,,A*64"
"$GPRMC,130937.000,A,4700.5196,N,00735.3909,E,0.00,309.75,291014,,,A*6C"
"$GPRMC,130938.000,A,4700.5198,N,00735.3902,E,0.00,309.75,291014,,,A*66"
"$GPRMC,130939.000,A,4700.5200,N,00735.3894,E,0.00,309.75,291014,,,A*6B"
"$GPRMC,130940.000,A,4700.5201,N,00735.3891,E,0.00,309.75,291014,,,A*61"
"$GPRMC,130941.000,A,4700.5200,N,00735.3891,E,0.00,309.75,291014,,,A*61"
"$GPRMC,130942.000,A,4700.5198,N,00735.3895,E,0.00,309.75,291014,,,A*64"
"$GPRMC,130943.000,A,4700.5192,N,00735.3908,E,0.00,309.75,291014,,,A*6A"
"$GPRMC,130944.000,A,4700.5194,N,00735.3905,E,0.00,309.75,291014,,,A*66"
"$GPRMC,130945.000,A,4700.5197,N,00735.3901,E,0.00,309.75,291014,,,A*60"
"$GPRMC,130946.000,A,4700.5202,N,00735.3890,E,0.00,309.75,291014,,,A*65"
"$GPRMC,130947.000,A,4700.5203,N,00735.3885,E,0.00,309.75,291014,,,A*61"
"$GPRMC,130948.000,A,4700.5206,N,00735.3880,E,0.00,309.75,291014,,,A*6E"
"$GPRMC,130949.000,A,4700.5209,N,00735.3875,E,0.00,309.75,291014,,,A*6A"
"$GPRMC,130950.000,A,4700.5213,N,00735.3865,E,0.00,309.75,291014,,,A*68"
"$GPRMC,130951.000,A,4700.5214,N,00735.3860,E,0.00,309.75,291014,,,A*6B"
"$GPRMC,130952.000,A,4700.5220,N,00735.3846,E,0.00,309.75,291014,,,A*6B"
"$GPRMC,130953.000,A,4700.5224,N,00735.3837,E,0.00,309.75,291014,,,A*68"
"$GPRMC,130954.000,A,4700.5225,N,00735.3835,E,0.00,309.75,291014,,,A*6C"
"$GPRMC,130955.000,A,4700.5231,N,00735.3820,E,0.00,309.75,291014,,,A*6C"
"$GPRMC,130956.000,A,4700.5236,N,00735.3809,E,0.00,309.75,291014,,,A*63"
"$GPRMC,130957.000,A,4700.5240,N,00735.3802,E,0.00,309.75,291014,,,A*68"
"$GPRMC,130958.000,A,4700.5242,N,00735.3800,E,0.00,309.75,291014,,,A*67"
"$GPRMC,130959.000,A,4700.5240,N,00735.3808,E,0.00,309.75,291014,,,A*6C"
"$GPRMC,131000.000,A,4700.5238,N,00735.3814,E,0.00,309.75,291014,,,A*6A"
"$GPRMC,131001.000,A,4700.5238,N,00735.3812,E,0.00,309.75,291014,,,A*6D"
"$GPRMC,131002.000,A,4700.5239,N,00735.3808,E,0.00,309.75,291014,,,A*64"
"$GPRMC,131003.000,A,4700.5239,N,00735.3806,E,0.00,309.75,291014,,,A*6B"
"$GPRMC,131004.000,A,4700.5240,N,00735.3802,E,0.00,309.75,291014,,,A*66"
"$GPRMC,131005.000,A,4700.5242,N,00735.3795,E,0.00,309.75,291014,,,A*64"
"$GPRMC,131006.000,A,4700.5242,N,00735.3794,E,0.00,309.75,291014,,,A*66"
"$GPRMC,131007.000,A,4700.5243,N,00735.3790,E,0.00,309.75,291014,,,A*62"
"$GPRMC,131008.000,A,4700.5241,N,00735.3794,E,0.00,309.75,291014,,,A*6B"
"$GPRMC,131009.000,A,4700.5242,N,00735.3788,E,0.00,309.75,291014,,,A*64"
"$GPRMC,131010.000,A,4700.5242,N,00735.3788,E,0.00,309.75,291014,,,A*6C"
"$GPRMC,131011.000,A,4700.5246,N,00735.3775,E,0.00,309.75,291014,,,A*6B"
"$GPRMC,131012.000,A,4700.5247,N,00735.3767,E,0.00,309.75,291014,,,A*6A"
"$GPRMC,131013.000,A,4700.5247,N,00735.3769,E,0.00,309.75,291014,,,A*65"
"$GPRMC,131014.000,A,4700.5244,N,00735.3775,E,0.00,309.75,291014,,,A*6C"
"$GPRMC,131015.000,A,4700.5243,N,00735.3784,E,0.00,309.75,291014,,,A*64"
"$GPRMC,131016.000,A,4700.5241,N,00735.3784,E,0.00,309.75,291014,,,A*65"
"$GPRMC,131017.000,A,4700.5236,N,00735.3797,E,0.00,309.75,291014,,,A*66"
"$GPRMC,131018.000,A,4700.5232,N,00735.3814,E,0.00,309.75,291014,,,A*69"
"$GPRMC,131019.000,A,4700.5230,N,00735.3824,E,0.00,309.75,291014,,,A*69"
"$GPRMC,131020.000,A,4700.5228,N,00735.3830,E,0.00,309.75,291014,,,A*6F"
"$GPRMC,131021.000,A,4700.5225,N,00735.3831,E,0.00,309.75,291014,,,A*62"
"$GPRMC,131022.000,A,4700.5221,N,00735.3836,E,0.00,309.75,291014,,,A*62"
"$GPRMC,131023.000,A,4700.5219,N,00735.3844,E,0.00,309.75,291014,,,A*6D"
"$GPRMC,131024.000,A,4700.5215,N,00735.3850,E,0.00,309.75,291014,,,A*63"
"$GPRMC,131025.000,A,4700.5212,N,00735.3861,E,0.00,309.75,291014,,,A*67"
"$GPRMC,131026.000,A,4700.5210,N,00735.3873,E,0.00,309.75,291014,,,A*65"
"$GPRMC,131027.000,A,4700.5208,N,00735.3877,E,0.00,309.75,291014,,,A*69"
"$GPRMC,131028.000,A,4700.5206,N,00735.3882,E,0.00,309.75,291014,,,A*62"
"$GPRMC,131029.000,A,4700.5205,N,00735.3893,E,0.00,309.75,291014,,,A*60"
"$GPRMC,131030.000,A,4700.5203,N,00735.3900,E,0.00,309.75,291014,,,A*65"
"$GPRMC,131031.000,A,4700.5201,N,00735.3903,E,0.00,309.75,291014,,,A*65"
"$GPRMC,131032.000,A,4700.5198,N,00735.3908,E,0.00,309.75,291014,,,A*6E"
"$GPRMC,131033.000,A,4700.5195,N,00735.3913,E,0.00,309.75,291014,,,A*68"
"$GPRMC,131034.000,A,4700.5193,N,00735.3916,E,0.00,309.75,291014,,,A*6C"
"$GPRMC,131035.000,A,4700.5191,N,00735.3930,E,0.00,309.75,291014,,,A*6B"
"$GPRMC,131036.000,A,4700.5189,N,00735.3938,E,0.00,309.75,291014,,,A*69"
"$GPRMC,131037.000,A,4700.5190,N,00735.3939,E,0.00,309.75,291014,,,A*61"
"$GPRMC,131038.000,A,4700.5189,N,00735.3936,E,0.00,309.75,291014,,,A*69"
"$GPRMC,131039.000,A,4700.5189,N,00735.3936,E,0.00,309.75,291014,,,A*68"
"$GPRMC,131040.000,A,4700.5188,N,00735.3935,E,0.00,309.75,291014,,,A*64"
"$GPRMC,131041.000,A,4700.5187,N,00735.3942,E,0.00,309.75,291014,,,A*6A"
"$GPRMC,131042.000,A,4700.5187,N,00735.3946,E,0.00,309.75,291014,,,A*6D"
"$GPRMC,131043.000,A,4700.5186,N,00735.3946,E,0.00,309.75,291014,,,A*6D"
"$GPRMC,131044.000,A,4700.5186,N,00735.3950,E,0.00,309.75,291014,,,A*6D"
"$GPRMC,131045.000,A,4700.5185,N,00735.3950,E,0.00,309.75,291014,,,A*6F"
"$GPRMC,131046.000,A,4700.5184,N,00735.3951,E,0.00,309.75,291014,,,A*6C"
"$GPRMC,131047.000,A,4700.5185,N,00735.3954,E,0.00,309.75,291014,,,A*69"
"$GPRMC,131048.000,A,4700.5186,N,00735.3961,E,0.00,309.75,291014,,,A*63"
"$GPRMC,131049.000,A,4700.5186,N,00735.3968,E,0.00,309.75,291014,,,A*6B"
"$GPRMC,131050.000,A,4700.5187,N,00735.3971,E,0.00,309.75,291014,,,A*6A"
"$GPRMC,131051.000,A,4700.5187,N,00735.3972,E,0.00,309.75,291014,,,A*68"
"$GPRMC,131052.000,A,4700.5187,N,00735.3972,E,0.00,309.75,291014,,,A*6B"
"$GPRMC,131053.000,A,4700.5186,N,00735.3970,E,0.00,309.75,291014,,,A*69"
"$GPRMC,131054.000,A,4700.5185,N,00735.3973,E,0.00,309.75,291014,,,A*6E"
"$GPRMC,131055.000,A,4700.5184,N,00735.3973,E,0.00,309.75,291014,,,A*6E"
"$GPRMC,131056.000,A,4700.5184,N,00735.3973,E,0.00,309.75,291014,,,A*6D"
"$GPRMC,131057.000,A,4700.5184,N,00735.3971,E,0.00,309.75,291014,,,A*6E"
"$GPRMC,131058.000,A,4700.5184,N,00735.3972,E,0.00,309.75,291014,,,A*62"
"$GPRMC,131059.000,A,4700.5185,N,00735.3974,E,0.00,309.75,291014,,,A*64"
"$GPRMC,131100.000,A,4700.5184,N,00735.3975,E,0.00,309.75,291014,,,A*69"
"$GPRMC,131101.000,A,4700.5184,N,00735.3976,E,0.00,309.75,291014,,,A*6B"
"$GPRMC,131102.000,A,4700.5184,N,00735.3974,E,0.00,309.75,291014,,,A*6A"
"$GPRMC,131103.000,A,4700.5184,N,00735.3974,E,0.00,309.75,291014,,,A*6B"
"$GPRMC,131104.000,A,4700.5185,N,00735.3974,E,0.00,309.75,291014,,,A*6D"
"$GPRMC,131105.000,A,4700.5185,N,00735.3974,E,0.00,309.75,291014,,,A*6C"
"$GPRMC,131106.000,A,4700.5184,N,00735.3977,E,0.00,309.75,291014,,,A*6D"
"$GPRMC,131107.000,A,4700.5183,N,00735.3983,E,0.00,309.75,291014,,,A*60"
"$GPRMC,131108.000,A,4700.5182,N,00735.3985,E,0.00,309.75,291014,,,A*68"
"$GPRMC,131109.000,A,4700.5181,N,00735.3987,E,0.00,309.75,291014,,,A*68"
"$GPRMC,131110.000,A,4700.5181,N,00735.3989,E,0.00,309.75,291014,,,A*6E"
"$GPRMC,131111.000,A,4700.5181,N,00735.3990,E,0.00,309.75,291014,,,A*67"
"$GPRMC,131112.000,A,4700.5180,N,00735.3991,E,0.00,309.75,291014,,,A*64"
"$GPRMC,131113.000,A,4700.5180,N,00735.3992,E,0.00,309.75,291014,,,A*66"
"$GPRMC,131114.000,A,4700.5180,N,00735.3994,E,0.00,309.75,291014,,,A*67"
"$GPRMC,131115.000,A,4700.5180,N,00735.3995,E,0.00,309.75,291014,,,A*67"
"$GPRMC,131116.000,A,4700.5180,N,00735.3996,E,0.00,309.75,291014,,,A*67"
"$GPRMC,131117.000,A,4700.5180,N,00735.3997,E,0.00,309.75,291014,,,A*67"
"$GPRMC,131118.000,A,4700.5180,N,00735.3998,E,0.00,309.75,291014,,,A*67"
"$GPRMC,131119.000,A,4700.5180,N,00735.3998,E,0.00,309.75,291014,,,A*66"
"$GPRMC,131120.000,A,4700.5180,N,00735.3998,E,0.00,309.75,291014,,,A*6C"
"$GPRMC,131121.000,A,4700.5181,N,00735.3998,E,0.00,309.75,291014,,,A*6C"
"$GPRMC,131122.000,A,4700.5182,N,00735.3997,E,0.00,309.75,291014,,,A*63"
"$GPRMC,131123.000,A,4700.5182,N,00735.3996,E,0.00,309.75,291014,,,A*63"
"$GPRMC,131124.000,A,4700.5182,N,00735.3995,E,0.00,309.75,291014,,,A*67"
"$GPRMC,131125.000,A,4700.5182,N,00735.3994,E,0.00,309.75,291014,,,A*67"
"$GPRMC,131126.000,A,4700.5183,N,00735.3993,E,0.00,309.75,291014,,,A*62"
"$GPRMC,131127.000,A,4700.5183,N,00735.3991,E,0.00,309.75,291014,,,A*61"
"$GPRMC,131128.000,A,4700.5185,N,00735.3986,E,0.00,309.75,291014,,,A*6E"
"$GPRMC,131129.000,A,4700.5186,N,00735.3985,E,0.00,309.75,291014,,,A*6F"
"$GPRMC,131130.000,A,4700.5187,N,00735.3980,E,0.00,309.75,291014,,,A*63"
"$GPRMC,131131.000,A,4700.5189,N,00735.3973,E,0.00,309.75,291014,,,A*60"
"$GPRMC,131132.000,A,4700.5190,N,00735.3971,E,0.00,309.75,291014,,,A*69"
"$GPRMC,131133.000,A,4700.5191,N,00735.3966,E,0.00,309.75,291014,,,A*6F"
"$GPRMC,131134.000,A,4700.5193,N,00735.3960,E,0.00,309.75,291014,,,A*6C"
"$GPRMC,131135.000,A,4700.5194,N,00735.3956,E,0.00,309.75,291014,,,A*6F"
"$GPRMC,131136.000,A,4700.5195,N,00735.3955,E,0.00,309.75,291014,,,A*6E"
"$GPRMC,131137.000,A,4700.5195,N,00735.3954,E,0.00,309.75,291014,,,A*6E"
"$GPRMC,131138.000,A,4700.5196,N,00735.3948,E,0.00,309.75,291014,,,A*6F"
"$GPRMC,131139.000,A,4700.5198,N,00735.3943,E,0.00,309.75,291014,,,A*6B"
"$GPRMC,131140.000,A,4700.5201,N,00735.3935,E,0.00,309.75,291014,,,A*67"
"$GPRMC,131141.000,A,4700.5203,N,00735.3928,E,0.00,309.75,291014,,,A*68"
"$GPRMC,131142.000,A,4700.5204,N,00735.3926,E,0.00,309.75,291014,,,A*62"
"$GPRMC,131143.000,A,4700.5204,N,00735.3924,E,0.00,309.75,291014,,,A*61"
"$GPRMC,131144.000,A,4700.5205,N,00735.3923,E,0.00,309.75,291014,,,A*60"
"$GPRMC,131145.000,A,4700.5204,N,00735.3924,E,0.00,309.75,291014,,,A*67"
"$GPRMC,131146.000,A,4700.5204,N,00735.3922,E,0.00,309.75,291014,,,A*62"
"$GPRMC,131147.000,A,4700.5205,N,00735.3920,E,0.00,309.75,291014,,,A*60"
"$GPRMC,131148.000,A,4700.5205,N,00735.3918,E,0.00,309.75,291014,,,A*64"
"$GPRMC,131149.000,A,4700.5204,N,00735.3920,E,0.00,309.75,291014,,,A*6F"
"$GPRMC,131150.000,A,4700.5205,N,00735.3918,E,0.00,309.75,291014,,,A*6D"
"$GPRMC,131151.000,A,4700.5205,N,00735.3918,E,0.00,309.75,291014,,,A*6C"
"$GPRMC,131152.000,A,4700.5205,N,00735.3917,E,0.00,309.75,291014,,,A*60"
"$GPRMC,131153.000,A,4700.5206,N,00735.3913,E,0.00,309.75,291014,,,A*66"
"$GPRMC,131154.000,A,4700.5206,N,00735.3912,E,0.00,309.75,291014,,,A*60"
"$GPRMC,131155.000,A,4700.5207,N,00735.3909,E,0.00,309.75,291014,,,A*6A"
"$GPRMC,131156.000,A,4700.5208,N,00735.3906,E,0.00,309.75,291014,,,A*69"
"$GPRMC,131157.000,A,4700.5208,N,00735.3905,E,0.00,309.75,291014,,,A*6B"
"$GPRMC,131158.000,A,4700.5209,N,00735.3904,E,0.00,309.75,291014,,,A*64"
"$GPRMC,131159.000,A,4700.5211,N,00735.3898,E,0.00,309.75,291014,,,A*68"
"$GPRMC,131200.000,A,4700.5212,N,00735.3898,E,0.00,309.75,291014,,,A*64"
"$GPRMC,131201.000,A,4700.5215,N,00735.3892,E,0.00,309.75,291014,,,A*68"
"$GPRMC,131202.000,A,4700.5216,N,00735.3890,E,0.00,309.75,291014,,,A*6A"
"$GPRMC,131203.000,A,4700.5216,N,00735.3888,E,0.00,309.75,291014,,,A*62"
"$GPRMC,131204.000,A,4700.5216,N,00735.3888,E,0.00,309.75,291014,,,A*65"
"$GPRMC,131205.000,A,4700.5216,N,00735.3887,E,0.00,309.75,291014,,,A*6B"
"$GPRMC,131206.000,A,4700.5213,N,00735.3896,E,0.00,309.75,291014,,,A*6D"
"$GPRMC,131207.000,A,4700.5212,N,00735.3900,E,0.00,309.75,291014,,,A*63"
"$GPRMC,131208.000,A,4700.5210,N,00735.3906,E,0.00,309.75,291014,,,A*68"
"$GPRMC,131209.000,A,4700.5209,N,00735.3911,E,0.00,309.75,291014,,,A*67"
"$GPRMC,131210.000,A,4700.5205,N,00735.3921,E,0.00,309.75,291014,,,A*60"
"$GPRMC,131211.000,A,4700.5204,N,00735.3923,E,0.00,309.75,291014,,,A*62"
"$GPRMC,131212.000,A,4700.5202,N,00735.3929,E,0.00,309.75,291014,,,A*6D"
"$GPRMC,131213.000,A,4700.5199,N,00735.3940,E,0.00,309.75,291014,,,A*62"
"$GPRMC,131214.000,A,4700.5197,N,00735.3945,E,0.00,309.75,291014,,,A*6E"
"$GPRMC,131215.000,A,4700.5193,N,00735.3954,E,0.00,309.75,291014,,,A*6B"
"$GPRMC,131216.000,A,4700.5190,N,00735.3958,E,0.00,309.75,291014,,,A*67"
"$GPRMC,131217.000,A,4700.5189,N,00735.3961,E,0.00,309.75,291014,,,A*64"
"$GPRMC,131218.000,A,4700.5187,N,00735.3965,E,0.00,309.75,291014,,,A*61"
"$GPRMC,131219.000,A,4700.5185,N,00735.3969,E,0.00,309.75,291014,,,A*6E"
"$GPRMC,131220.000,A,4700.5187,N,00735.3965,E,0.00,309.75,291014,,,A*6A"
"$GPRMC,131221.000,A,4700.5189,N,00735.3964,E,0.00,309.75,291014,,,A*64"
"$GPRMC,131222.000,A,4700.5191,N,00735.3963,E,0.00,309.75,291014,,,A*69"
"$GPRMC,131223.000,A,4700.5193,N,00735.3963,E,0.00,309.75,291014,,,A*6A"
"$GPRMC,131224.000,A,4700.5193,N,00735.3968,E,0.00,309.75,291014,,,A*66"
"$GPRMC,131225.000,A,4700.5194,N,00735.3970,E,0.00,309.75,291014,,,A*69"
"$GPRMC,131226.000,A,4700.5194,N,00735.3971,E,0.00,309.75,291014,,,A*6B"
"$GPRMC,131227.000,A,4700.5195,N,00735.3974,E,0.00,309.75,291014,,,A*6E"
"$GPRMC,131228.000,A,4700.5196,N,00735.3972,E,0.00,309.75,291014,,,A*64"
"$GPRMC,131229.000,A,4700.5199,N,00735.3965,E,0.00,309.75,291014,,,A*6C"
"$GPRMC,131230.000,A,4700.5202,N,00735.3957,E,0.00,309.75,291014,,,A*64"
"$GPRMC,131231.000,A,4700.5203,N,00735.3957,E,0.00,309.75,291014,,,A*64"
"$GPRMC,131232.000,A,4700.5203,N,00735.3958,E,0.00,309.75,291014,,,A*68"
"$GPRMC,131233.000,A,4700.5203,N,00735.3958,E,0.00,309.75,291014,,,A*69"
"$GPRMC,131234.000,A,4700.5204,N,00735.3958,E,0.00,309.75,291014,,,A*69"
"$GPRMC,131235.000,A,4700.5205,N,00735.3956,E,0.00,309.75,291014,,,A*67"
"$GPRMC,131236.000,A,4700.5204,N,00735.3960,E,0.00,309.75,291014,,,A*60"
"$GPRMC,131237.000,A,4700.5203,N,00735.3963,E,0.00,309.75,291014,,,A*65"
"$GPRMC,131238.000,A,4700.5202,N,00735.3966,E,0.00,309.75,291014,,,A*6E"
"$GPRMC,131239.000,A,4700.5202,N,00735.3968,E,0.00,309.75,291014,,,A*61"
"$GPRMC,131240.000,A,4700.5201,N,00735.3969,E,0.00,309.75,291014,,,A*6D"
"$GPRMC,131241.000,A,4700.5200,N,00735.3972,E,0.00,309.75,291014,,,A*67"
"$GPRMC,131242.000,A,4700.5199,N,00735.3978,E,0.00,309.75,291014,,,A*6D"
"$GPRMC,131243.000,A,4700.5197,N,00735.3984,E,0.00,309.75,291014,,,A*61"
"$GPRMC,131244.000,A,4700.5197,N,00735.3981,E,0.00,309.75,291014,,,A*63"
"$GPRMC,131245.000,A,4700.5199,N,00735.3976,E,0.00,309.75,291014,,,A*64"
"$GPRMC,131246.000,A,4700.5198,N,00735.3974,E,0.00,309.75,291014,,,A*64"
"$GPRMC,131247.000,A,4700.5197,N,00735.3970,E,0.00,309.75,291014,,,A*6E"
"$GPRMC,131248.000,A,4700.5197,N,00735.3969,E,0.00,309.75,291014,,,A*69"
"$GPRMC,131249.000,A,4700.5195,N,00735.3973,E,0.00,309.75,291014,,,A*61"
"$GPRMC,131250.000,A,4700.5199,N,00735.3966,E,0.00,309.75,291014,,,A*61"
"$GPRMC,131251.000,A,4700.5200,N,00735.3967,E,0.00,309.75,291014,,,A*62"
"$GPRMC,131252.000,A,4700.5202,N,00735.3963,E,0.00,309.75,291014,,,A*67"
"$GPRMC,131253.000,A,4700.5204,N,00735.3961,E,0.00,309.75,291014,,,A*62"
"$GPRMC,131254.000,A,4700.5205,N,00735.3961,E,0.00,309.75,291014,,,A*64"
"$GPRMC,131255.000,A,4700.5205,N,00735.3961,E,0.00,309.75,291014,,,A*65"
"$GPRMC,131256.000,A,4700.5204,N,00735.3965,E,0.00,309.75,291014,,,A*63"
"$GPRMC,131257.000,A,4700.5205,N,00735.3965,E,0.00,309.75,291014,,,A*63"
"$GPRMC,131258.000,A,4700.5206,N,00735.3960,E,0.00,309.75,291014,,,A*6A"
"$GPRMC,131259.000,A,4700.5209,N,00735.3951,E,0.00,309.75,291014,,,A*66"
"$GPRMC,131300.000,A,4700.5210,N,00735.3947,E,0.00,309.75,291014,,,A*64"
"$GPRMC,131301.000,A,4700.5210,N,00735.3949,E,0.00,309.75,291014,,,A*6B"
"$GPRMC,131302.000,A,4700.5209,N,00735.3952,E,0.00,309.75,291014,,,A*6A"
"$GPRMC,131303.000,A,4700.5208,N,00735.3955,E,0.00,309.75,291014,,,A*6D"
"$GPRMC,131304.000,A,4700.5208,N,00735.3958,E,0.00,309.75,291014,,,A*67"
"$GPRMC,131305.000,A,4700.5208,N,00735.3957,E,0.00,309.75,291014,,,A*69"
"$GPRMC,131306.000,A,4700.5207,N,00735.3960,E,0.00,309.75,291014,,,A*61"
"$GPRMC,131307.000,A,4700.5206,N,00735.3964,E,0.00,309.75,291014,,,A*65"
"$GPRMC,131308.000,A,4700.5205,N,00735.3969,E,0.00,309.75,291014,,,A*64"
"$GPRMC,131309.000,A,4700.5205,N,00735.3968,E,0.00,309.75,291014,,,A*64"
"$GPRMC,131310.000,A,4700.5204,N,00735.3969,E,0.00,309.75,291014,,,A*6C"
"$GPRMC,131311.000,A,4700.5204,N,00735.3970,E,0.00,309.75,291014,,,A*65"
"$GPRMC,131312.000,A,4700.5204,N,00735.3971,E,0.00,309.75,291014,,,A*67"
"$GPRMC,131313.000,A,4700.5205,N,00735.3968,E,0.00,309.75,291014,,,A*6F"
"$GPRMC,131314.000,A,4700.5206,N,00735.3966,E,0.00,309.75,291014,,,A*65"
"$GPRMC,131315.000,A,4700.5206,N,00735.3966,E,0.00,309.75,291014,,,A*64"
"$GPRMC,131316.000,A,4700.5206,N,00735.3967,E,0.00,309.75,291014,,,A*66"
"$GPRMC,131317.000,A,4700.5207,N,00735.3965,E,0.00,309.75,291014,,,A*64"
"$GPRMC,131318.000,A,4700.5207,N,00735.3964,E,0.00,309.75,291014,,,A*6A"
"$GPRMC,131319.000,A,4700.5208,N,00735.3963,E,0.00,309.75,291014,,,A*63"
"$GPRMC,131320.000,A,4700.5209,N,00735.3960,E,0.00,309.75,291014,,,A*6B"
"$GPRMC,131321.000,A,4700.5211,N,00735.3954,E,0.00,309.75,291014,,,A*64"
"$GPRMC,131322.000,A,4700.5213,N,00735.3950,E,0.00,309.75,291014,,,A*61"
"$GPRMC,131323.000,A,4700.5215,N,00735.3950,E,0.00,309.75,291014,,,A*66"
"$GPRMC,131324.000,A,4700.5215,N,00735.3952,E,0.00,309.75,291014,,,A*63"
"$GPRMC,131325.000,A,4700.5216,N,00735.3949,E,0.00,309.75,291014,,,A*6B"
"$GPRMC,131326.000,A,4700.5215,N,00735.3949,E,0.00,309.75,291014,,,A*6B"
"$GPRMC,131327.000,A,4700.5216,N,00735.3944,E,0.00,309.75,291014,,,A*64"
"$GPRMC,131328.000,A,4700.5217,N,00735.3940,E,0.00,309.75,291014,,,A*6E"
"$GPRMC,131329.000,A,4700.5216,N,00735.3942,E,0.00,309.75,291014,,,A*6C"
"$GPRMC,131330.000,A,4700.5215,N,00735.3944,E,0.00,309.75,291014,,,A*61"
"$GPRMC,131331.000,A,4700.5215,N,00735.3946,E,0.00,309.75,291014,,,A*62"
"$GPRMC,131332.000,A,4700.5214,N,00735.3948,E,0.00,309.75,291014,,,A*6E"
"$GPRMC,131333.000,A,4700.5213,N,00735.3954,E,0.00,309.75,291014,,,A*65"
"$GPRMC,131334.000,A,4700.5212,N,00735.3957,E,0.00,309.75,291014,,,A*60"
"$GPRMC,131335.000,A,4700.5211,N,00735.3960,E,0.00,309.75,291014,,,A*66"
"$GPRMC,131336.000,A,4700.5210,N,00735.3963,E,0.00,309.75,291014,,,A*67"
"$GPRMC,131337.000,A,4700.5207,N,00735.3967,E,0.00,309.75,291014,,,A*64"
"$GPRMC,131338.000,A,4700.5205,N,00735.3972,E,0.00,309.75,291014,,,A*6D"
"$GPRMC,131339.000,A,4700.5203,N,00735.3975,E,0.00,309.75,291014,,,A*6D"
"$GPRMC,131340.000,A,4700.5200,N,00735.3981,E,0.00,309.75,291014,,,A*6B"
"$GPRMC,131341.000,A,4700.5198,N,00735.3984,E,0.00,309.75,291014,,,A*6D"
"$GPRMC,131342.000,A,4700.5196,N,00735.3988,E,0.00,309.75,291014,,,A*6C"
"$GPRMC,131343.000,A,4700.5193,N,00735.3990,E,0.00,309.75,291014,,,A*61"
"$GPRMC,131344.000,A,4700.5190,N,00735.3994,E,0.00,309.75,291014,,,A*61"
"$GPRMC,131345.000,A,4700.5189,N,00735.3994,E,0.00,309.75,291014,,,A*68"
"$GPRMC,131346.000,A,4700.5188,N,00735.3994,E,0.00,309.75,291014,,,A*6A"
"$GPRMC,131347.000,A,4700.5188,N,00735.3994,E,0.00,309.75,291014,,,A*6B"
"$GPRMC,131348.000,A,4700.5188,N,00735.3994,E,0.00,309.75,291014,,,A*64"
"$GPRMC,131349.000,A,4700.5188,N,00735.3994,E,0.00,309.75,291014,,,A*65"
"$GPRMC,131350.000,A,4700.5188,N,00735.3995,E,0.00,309.75,291014,,,A*6C"
"$GPRMC,131351.000,A,4700.5188,N,00735.3994,E,0.00,309.75,291014,,,A*6C"
"$GPRMC,131352.000,A,4700.5188,N,00735.3994,E,0.00,309.75,291014,,,A*6F"
"$GPRMC,131353.000,A,4700.5188,N,00735.3994,E,0.00,309.75,291014,,,A*6E"
"$GPRMC,131354.000,A,4700.5187,N,00735.3994,E,0.00,309.75,291014,,,A*66"
"$GPRMC,131355.000,A,4700.5187,N,00735.3994,E,0.00,309.75,291014,,,A*67"
"$GPRMC,131356.000,A,4700.5184,N,00735.3995,E,0.00,309.75,291014,,,A*66"
"$GPRMC,131357.000,A,4700.5183,N,00735.3996,E,0.00,309.75,291014,,,A*63"
"$GPRMC,131358.000,A,4700.5181,N,00735.3997,E,0.00,309.75,291014,,,A*6F"
"$GPRMC,131359.000,A,4700.5179,N,00735.3997,E,0.00,309.75,291014,,,A*69"
"$GPRMC,131400.000,A,4700.5177,N,00735.3998,E,0.00,309.75,291014,,,A*63"
"$GPRMC,131401.000,A,4700.5176,N,00735.3998,E,0.00,309.75,291014,,,A*63"
"$GPRMC,131402.000,A,4700.5174,N,00735.3999,E,0.00,309.75,291014,,,A*63"
"$GPRMC,131403.000,A,4700.5173,N,00735.3999,E,0.00,309.75,291014,,,A*65"
"$GPRMC,131404.000,A,4700.5172,N,00735.3999,E,0.00,309.75,291014,,,A*63"
"$GPRMC,131405.000,A,4700.5173,N,00735.3999,E,0.00,309.75,291014,,,A*63"
"$GPRMC,131406.000,A,4700.5173,N,00735.3999,E,0.00,309.75,291014,,,A*60"
"$GPRMC,131407.000,A,4700.5174,N,00735.3999,E,0.00,309.75,291014,,,A*66"
"$GPRMC,131408.000,A,4700.5175,N,00735.3999,E,0.00,309.75,291014,,,A*68"
"$GPRMC,131409.000,A,4700.5176,N,00735.3998,E,0.00,309.75,291014,,,A*6B"
"$GPRMC,131410.000,A,4700.5177,N,00735.3996,E,0.00,309.75,291014,,,A*6C"
"$GPRMC,131411.000,A,4700.5176,N,00735.3994,E,0.00,309.75,291014,,,A*6E"
"$GPRMC,131412.000,A,4700.5177,N,00735.3992,E,0.00,309.75,291014,,,A*6A"
"$GPRMC,131413.000,A,4700.5178,N,00735.3991,E,0.00,309.75,291014,,,A*67"
"$GPRMC,131414.000,A,4700.5179,N,00735.3989,E,0.00,309.75,291014,,,A*68"
"$GPRMC,131415.000,A,4700.5178,N,00735.3988,E,0.00,309.75,291014,,,A*69"
"$GPRMC,131416.000,A,4700.5175,N,00735.3989,E,0.00,309.75,291014,,,A*66"
"$GPRMC,131417.000,A,4700.5173,N,00735.3988,E,0.00,309.75,291014,,,A*60"
"$GPRMC,131418.000,A,4700.5172,N,00735.3986,E,0.00,309.75,291014,,,A*60"
"$GPRMC,131419.000,A,4700.5171,N,00735.3985,E,0.00,309.75,291014,,,A*61"
"$GPRMC,131420.000,A,4700.5170,N,00735.3984,E,0.00,309.75,291014,,,A*6B"
"$GPRMC,131421.000,A,4700.5170,N,00735.3982,E,0.00,309.75,291014,,,A*6C"
"$GPRMC,131422.000,A,4700.5173,N,00735.3979,E,0.00,309.75,291014,,,A*68"
"$GPRMC,131423.000,A,4700.5176,N,00735.3977,E,0.00,309.75,291014,,,A*62"
"$GPRMC,131424.000,A,4700.5178,N,00735.3974,E,0.00,309.75,291014,,,A*68"
"$GPRMC,131425.000,A,4700.5180,N,00735.3973,E,0.00,309.75,291014,,,A*69"
"$GPRMC,131426.000,A,4700.5182,N,00735.3971,E,0.00,309.75,291014,,,A*6A"
"$GPRMC,131427.000,A,4700.5184,N,00735.3969,E,0.00,309.75,291014,,,A*64"
"$GPRMC,131428.000,A,4700.5185,N,00735.3967,E,0.00,309.75,291014,,,A*64"
"$GPRMC,131429.000,A,4700.5186,N,00735.3965,E,0.00,309.75,291014,,,A*64"
"$GPRMC,131430.000,A,4700.5187,N,00735.3962,E,0.00,309.75,291014,,,A*6A"
"$GPRMC,131431.000,A,4700.5188,N,00735.3960,E,0.00,309.75,291014,,,A*66"
"$GPRMC,131432.000,A,4700.5189,N,00735.3958,E,0.00,309.75,291014,,,A*6F"
"$GPRMC,131433.000,A,4700.5189,N,00735.3957,E,0.00,309.75,291014,,,A*61"
"$GPRMC,131434.000,A,4700.5190,N,00735.3955,E,0.00,309.75,291014,,,A*6C"
"$GPRMC,131435.000,A,4700.5190,N,00735.3954,E,0.00,309.75,291014,,,A*6C"
"$GPRMC,131436.000,A,4700.5191,N,00735.3953,E,0.00,309.75,291014,,,A*69"
"$GPRMC,131437.000,A,4700.5191,N,00735.3952,E,0.00,309.75,291014,,,A*69"
"$GPRMC,131438.000,A,4700.5192,N,00735.3952,E,0.00,309.75,291014,,,A*65"
"$GPRMC,131439.000,A,4700.5192,N,00735.3952,E,0.00,309.75,291014,,,A*64"
"$GPRMC,131440.000,A,4700.5192,N,00735.3950,E,0.00,309.75,291014,,,A*68"
"$GPRMC,131441.000,A,4700.5191,N,00735.3949,E,0.00,309.75,291014,,,A*62"
"$GPRMC,131442.000,A,4700.5191,N,00735.3949,E,0.00,309.75,291014,,,A*61"
"$GPRMC,131443.000,A,4700.5191,N,00735.3948,E,0.00,309.75,291014,,,A*61"
"$GPRMC,131444.000,A,4700.5191,N,00735.3948,E,0.00,309.75,291014,,,A*66"
"$GPRMC,131445.000,A,4700.5191,N,00735.3948,E,0.00,309.75,291014,,,A*67"
"$GPRMC,131446.000,A,4700.5190,N,00735.3947,E,0.00,309.75,291014,,,A*6A"
"$GPRMC,131447.000,A,4700.5190,N,00735.3947,E,0.00,309.75,291014,,,A*6B"
"$GPRMC,131448.000,A,4700.5190,N,00735.3947,E,0.00,309.75,291014,,,A*64"
"$GPRMC,131449.000,A,4700.5190,N,00735.3947,E,0.00,309.75,291014,,,A*65"
"$GPRMC,131450.000,A,4700.5189,N,00735.3947,E,0.00,309.75,291014,,,A*65"
"$GPRMC,131451.000,A,4700.5188,N,00735.3947,E,0.00,309.75,291014,,,A*65"
"$GPRMC,131452.000,A,4700.5188,N,00735.3948,E,0.00,309.75,291014,,,A*69"
"$GPRMC,131453.000,A,4700.5188,N,00735.3949,E,0.00,309.75,291014,,,A*69"
"$GPRMC,131454.000,A,4700.5187,N,00735.3949,E,0.00,309.75,291014,,,A*61"
"$GPRMC,131455.000,A,4700.5186,N,00735.3950,E,0.00,309.75,291014,,,A*69"
"$GPRMC,131456.000,A,4700.5185,N,00735.3951,E,0.00,309.75,291014,,,A*68"
"$GPRMC,131457.000,A,4700.5185,N,00735.3952,E,0.00,309.75,291014,,,A*6A"
"$GPRMC,131458.000,A,4700.5185,N,00735.3953,E,0.00,309.75,291014,,,A*64"
"$GPRMC,131459.000,A,4700.5185,N,00735.3955,E,0.00,309.75,291014,,,A*63"
"$GPRMC,131500.000,A,4700.5185,N,00735.3955,E,0.00,309.75,291014,,,A*6E"
"$GPRMC,131501.000,A,4700.5184,N,00735.3957,E,0.00,309.75,291014,,,A*6C"
"$GPRMC,131502.000,A,4700.5184,N,00735.3958,E,0.00,309.75,291014,,,A*60"
"$GPRMC,131503.000,A,4700.5184,N,00735.3959,E,0.00,309.75,291014,,,A*60"
"$GPRMC,131504.000,A,4700.5185,N,00735.3960,E,0.00,309.75,291014,,,A*6C"
"$GPRMC,131505.000,A,4700.5184,N,00735.3960,E,0.00,309.75,291014,,,A*6C"
"$GPRMC,131506.000,A,4700.5184,N,00735.3960,E,0.00,309.75,291014,,,A*6F"
"$GPRMC,131507.000,A,4700.5184,N,00735.3961,E,0.00,309.75,291014,,,A*6F"
"$GPRMC,131508.000,A,4700.5184,N,00735.3962,E,0.00,309.75,291014,,,A*63"
"$GPRMC,131509.000,A,4700.5183,N,00735.3960,E,0.00,309.75,291014,,,A*67"
"$GPRMC,131510.000,A,4700.5182,N,00735.3958,E,0.00,309.75,291014,,,A*65"
"$GPRMC,131511.000,A,4700.5181,N,00735.3956,E,0.00,309.75,291014,,,A*69"
"$GPRMC,131512.000,A,4700.5181,N,00735.3955,E,0.00,309.75,291014,,,A*69"
"$GPRMC,131513.000,A,4700.5181,N,00735.3953,E,0.00,309.75,291014,,,A*6E"
"$GPRMC,131514.000,A,4700.5181,N,00735.3953,E,0.00,309.75,291014,,,A*69"
"$GPRMC,131515.000,A,4700.5181,N,00735.3952,E,0.00,309.75,291014,,,A*69"
"$GPRMC,131516.000,A,4700.5180,N,00735.3951,E,0.00,309.75,291014,,,A*68"
"$GPRMC,131517.000,A,4700.5178,N,00735.3949,E,0.00,309.75,291014,,,A*67"
"$GPRMC,131518.000,A,4700.5177,N,00735.3947,E,0.00,309.75,291014,,,A*69"
"$GPRMC,131519.000,A,4700.5176,N,00735.3946,E,0.00,309.75,291014,,,A*68"
"$GPRMC,131520.000,A,4700.5176,N,00735.3945,E,0.00,309.75,291014,,,A*61"
"$GPRMC,131521.000,A,4700.5177,N,00735.3946,E,0.00,309.75,291014,,,A*62"
"$GPRMC,131522.000,A,4700.5178,N,00735.3947,E,0.00,309.75,291014,,,A*6F"
"$GPRMC,131523.000,A,4700.5178,N,00735.3945,E,0.00,309.75,291014,,,A*6C"
"$GPRMC,131524.000,A,4700.5177,N,00735.3943,E,0.00,309.75,291014,,,A*62"
"$GPRMC,131525.000,A,4700.5177,N,00735.3940,E,0.00,309.75,291014,,,A*60"
"$GPRMC,131526.000,A,4700.5176,N,00735.3938,E,0.00,309.75,291014,,,A*6D"
"$GPRMC,131527.000,A,4700.5175,N,00735.3936,E,0.00,309.75,291014,,,A*61"
"$GPRMC,131528.000,A,4700.5177,N,00735.3935,E,0.00,309.75,291014,,,A*6F"
"$GPRMC,131529.000,A,4700.5176,N,00735.3933,E,0.00,309.75,291014,,,A*69"
"$GPRMC,131530.000,A,4700.5176,N,00735.3931,E,0.00,309.75,291014,,,A*63"
"$GPRMC,131531.000,A,4700.5176,N,00735.3930,E,0.00,309.75,291014,,,A*63"
"$GPRMC,131532.000,A,4700.5176,N,00735.3930,E,0.00,309.75,291014,,,A*60"
"$GPRMC,131533.000,A,4700.5177,N,00735.3930,E,0.00,309.75,291014,,,A*60"
"$GPRMC,131534.000,A,4700.5175,N,00735.3933,E,0.00,309.75,291014,,,A*66"
"$GPRMC,131535.000,A,4700.5176,N,00735.3933,E,0.00,309.75,291014,,,A*64"
"$GPRMC,131536.000,A,4700.5175,N,00735.3939,E,0.00,309.75,291014,,,A*6E"
"$GPRMC,131537.000,A,4700.5176,N,00735.3937,E,0.00,309.75,291014,,,A*62"
"$GPRMC,131538.000,A,4700.5177,N,00735.3936,E,0.00,309.75,291014,,,A*6D"
"$GPRMC,131539.000,A,4700.5178,N,00735.3937,E,0.00,309.75,291014,,,A*62"
"$GPRMC,131540.000,A,4700.5179,N,00735.3938,E,0.00,309.75,291014,,,A*62"
"$GPRMC,131541.000,A,4700.5180,N,00735.3938,E,0.00,309.75,291014,,,A*65"
"$GPRMC,131542.000,A,4700.5181,N,00735.3939,E,0.00,309.75,291014,,,A*66"
"$GPRMC,131543.000,A,4700.5182,N,00735.3939,E,0.00,309.75,291014,,,A*64"
"$GPRMC,131544.000,A,4700.5182,N,00735.3939,E,0.00,309.75,291014,,,A*63"
"$GPRMC,131545.000,A,4700.5182,N,00735.3939,E,0.00,309.75,291014,,,A*62"
"$GPRMC,131546.000,A,4700.5181,N,00735.3938,E,0.00,309.75,291014,,,A*63"
"$GPRMC,131547.000,A,4700.5181,N,00735.3938,E,0.00,309.75,291014,,,A*62"
"$GPRMC,131548.000,A,4700.5181,N,00735.3938,E,0.00,309.75,291014,,,A*6D"
"$GPRMC,131549.000,A,4700.5183,N,00735.3937,E,0.00,309.75,291014,,,A*61"
"$GPRMC,131550.000,A,4700.5183,N,00735.3936,E,0.00,309.75,291014,,,A*68"
"$GPRMC,131551.000,A,4700.5183,N,00735.3936,E,0.00,309.75,291014,,,A*69"
"$GPRMC,131552.000,A,4700.5184,N,00735.3935,E,0.00,309.75,291014,,,A*6E"
"$GPRMC,131553.000,A,4700.5183,N,00735.3934,E,0.00,309.75,291014,,,A*69"
"$GPRMC,131554.000,A,4700.5183,N,00735.3934,E,0.00,309.75,291014,,,A*6E"
"$GPRMC,131555.000,A,4700.5183,N,00735.3934,E,0.00,309.75,291014,,,A*6F"
"$GPRMC,131556.000,A,4700.5183,N,00735.3934,E,0.00,309.75,291014,,,A*6C"
"$GPRMC,131557.000,A,4700.5182,N,00735.3935,E,0.00,309.75,291014,,,A*6D"
"$GPRMC,131558.000,A,4700.5181,N,00735.3935,E,0.00,309.75,291014,,,A*61"
"$GPRMC,131559.000,A,4700.5181,N,00735.3935,E,0.00,309.75,291014,,,A*60"
"$GPRMC,131600.000,A,4700.5181,N,00735.3935,E,0.00,309.75,291014,,,A*6F"
"$GPRMC,131601.000,A,4700.5180,N,00735.3934,E,0.00,309.75,291014,,,A*6E"
"$GPRMC,131602.000,A,4700.5181,N,00735.3933,E,0.00,309.75,291014,,,A*6B"
"$GPRMC,131603.000,A,4700.5181,N,00735.3933,E,0.00,309.75,291014,,,A*6A"
"$GPRMC,131604.000,A,4700.5182,N,00735.3932,E,0.00,309.75,291014,,,A*6F"
"$GPRMC,131605.000,A,4700.5183,N,00735.3932,E,0.00,309.75,291014,,,A*6F"
"$GPRMC,131606.000,A,4700.5184,N,00735.3931,E,0.00,309.75,291014,,,A*68"
"$GPRMC,131607.000,A,4700.5184,N,00735.3930,E,0.00,309.75,291014,,,A*68"
"$GPRMC,131608.000,A,4700.5184,N,00735.3929,E,0.00,309.75,291014,,,A*6F"
"$GPRMC,131609.000,A,4700.5185,N,00735.3928,E,0.00,309.75,291014,,,A*6E"
"$GPRMC,131610.000,A,4700.5186,N,00735.3928,E,0.00,309.75,291014,,,A*65"
"$GPRMC,131611.000,A,4700.5187,N,00735.3927,E,0.00,309.75,291014,,,A*6A"
"$GPRMC,131612.000,A,4700.5187,N,00735.3926,E,0.00,309.75,291014,,,A*68"
"$GPRMC,131613.000,A,4700.5188,N,00735.3925,E,0.00,309.75,291014,,,A*65"
"$GPRMC,131614.000,A,4700.5188,N,00735.3924,E,0.00,309.75,291014,,,A*63"
"$GPRMC,131615.000,A,4700.5188,N,00735.3923,E,0.00,309.75,291014,,,A*65"
"$GPRMC,131616.000,A,4700.5188,N,00735.3922,E,0.00,309.75,291014,,,A*67"
"$GPRMC,131617.000,A,4700.5188,N,00735.3920,E,0.00,309.75,291014,,,A*64"
"$GPRMC,131618.000,A,4700.5188,N,00735.3919,E,0.00,309.75,291014,,,A*61"
"$GPRMC,131619.000,A,4700.5189,N,00735.3920,E,0.00,309.75,291014,,,A*6B"
"$GPRMC,131620.000,A,4700.5189,N,00735.3919,E,0.00,309.75,291014,,,A*6B"
"$GPRMC,131621.000,A,4700.5190,N,00735.3918,E,0.00,309.75,291014,,,A*63"
"$GPRMC,131622.000,A,4700.5191,N,00735.3917,E,0.00,309.75,291014,,,A*6E"
"$GPRMC,131623.000,A,4700.5190,N,00735.3917,E,0.00,309.75,291014,,,A*6E"
"$GPRMC,131624.000,A,4700.5191,N,00735.3916,E,0.00,309.75,291014,,,A*69"
"$GPRMC,131625.000,A,4700.5191,N,00735.3916,E,0.00,309.75,291014,,,A*68"
"$GPRMC,131626.000,A,4700.5192,N,00735.3915,E,0.00,309.75,291014,,,A*6B"
"$GPRMC,131627.000,A,4700.5192,N,00735.3914,E,0.00,309.75,291014,,,A*6B"
"$GPRMC,131628.000,A,4700.5193,N,00735.3913,E,0.00,309.75,291014,,,A*62"
"$GPRMC,131629.000,A,4700.5192,N,00735.3912,E,0.00,309.75,291014,,,A*63"
"$GPRMC,131630.000,A,4700.5192,N,00735.3911,E,0.00,309.75,291014,,,A*68"
"$GPRMC,131631.000,A,4700.5192,N,00735.3910,E,0.00,309.75,291014,,,A*68"
"$GPRMC,131632.000,A,4700.5193,N,00735.3909,E,0.00,309.75,291014,,,A*62"
"$GPRMC,131633.000,A,4700.5192,N,00735.3909,E,0.00,309.75,291014,,,A*62"
"$GPRMC,131634.000,A,4700.5192,N,00735.3909,E,0.00,309.75,291014,,,A*65"
"$GPRMC,131635.000,A,4700.5192,N,00735.3909,E,0.00,309.75,291014,,,A*64"
"$GPRMC,131636.000,A,4700.5192,N,00735.3909,E,0.00,309.75,291014,,,A*67"
"$GPRMC,131637.000,A,4700.5191,N,00735.3908,E,0.00,309.75,291014,,,A*64"
"$GPRMC,131638.000,A,4700.5191,N,00735.3909,E,0.00,309.75,291014,,,A*6A"
"$GPRMC,131639.000,A,4700.5190,N,00735.3910,E,0.00,309.75,291014,,,A*62"
"$GPRMC,131640.000,A,4700.5190,N,00735.3910,E,0.00,309.75,291014,,,A*6C"
"$GPRMC,131641.000,A,4700.5189,N,00735.3911,E,0.00,309.75,291014,,,A*64"
"$GPRMC,131642.000,A,4700.5189,N,00735.3911,E,0.00,309.75,291014,,,A*67"
"$GPRMC,131643.000,A,4700.5189,N,00735.3911,E,0.00,309.75,291014,,,A*66"
"$GPRMC,131644.000,A,4700.5190,N,00735.3912,E,0.00,309.75,291014,,,A*6A"
"$GPRMC,131645.000,A,4700.5190,N,00735.3912,E,0.00,309.75,291014,,,A*6B"
"$GPRMC,131646.000,A,4700.5190,N,00735.3912,E,0.00,309.75,291014,,,A*68"
"$GPRMC,131647.000,A,4700.5191,N,00735.3911,E,0.00,309.75,291014,,,A*6B"
"$GPRMC,131648.000,A,4700.5191,N,00735.3911,E,0.00,309.75,291014,,,A*64"
"$GPRMC,131649.000,A,4700.5191,N,00735.3911,E,0.00,309.75,291014,,,A*65"
"$GPRMC,131650.000,A,4700.5191,N,00735.3911,E,0.00,309.75,291014,,,A*6D"
"$GPRMC,131651.000,A,4700.5192,N,00735.3911,E,0.00,309.75,291014,,,A*6F"
"$GPRMC,131652.000,A,4700.5193,N,00735.3912,E,0.00,309.75,291014,,,A*6E"
"$GPRMC,131653.000,A,4700.5194,N,00735.3913,E,0.00,309.75,291014,,,A*69"
"$GPRMC,131654.000,A,4700.5194,N,00735.3912,E,0.00,309.75,291014,,,A*6F"
"$GPRMC,131655.000,A,4700.5193,N,00735.3912,E,0.00,309.75,291014,,,A*69"
"$GPRMC,131656.000,A,4700.5192,N,00735.3911,E,0.00,309.75,291014,,,A*68"
"$GPRMC,131657.000,A,4700.5192,N,00735.3908,E,0.00,309.75,291014,,,A*61"
"$GPRMC,131658.000,A,4700.5190,N,00735.3904,E,0.00,309.75,291014,,,A*60"
"$GPRMC,131659.000,A,4700.5190,N,00735.3902,E,0.00,309.75,291014,,,A*67"
"$GPRMC,131700.000,A,4700.5191,N,00735.3903,E,0.00,309.75,291014,,,A*6A"
"$GPRMC,131701.000,A,4700.5191,N,00735.3907,E,0.00,309.75,291014,,,A*6F"
"$GPRMC,131702.000,A,4700.5193,N,00735.3912,E,0.00,309.75,291014,,,A*6A"
"$GPRMC,131703.000,A,4700.5193,N,00735.3913,E,0.00,309.75,291014,,,A*6A"
"$GPRMC,131704.000,A,4700.5193,N,00735.3913,E,0.00,309.75,291014,,,A*6D"
"$GPRMC,131705.000,A,4700.5195,N,00735.3915,E,0.00,309.75,291014,,,A*6C"
"$GPRMC,131706.000,A,4700.5195,N,00735.3916,E,0.00,309.75,291014,,,A*6C"
"$GPRMC,131707.000,A,4700.5196,N,00735.3916,E,0.00,309.75,291014,,,A*6E"
"$GPRMC,131708.000,A,4700.5196,N,00735.3916,E,0.00,309.75,291014,,,A*61"
"$GPRMC,131709.000,A,4700.5196,N,00735.3917,E,0.00,309.75,291014,,,A*61"
"$GPRMC,131710.000,A,4700.5196,N,00735.3918,E,0.00,309.75,291014,,,A*66"
"$GPRMC,131711.000,A,4700.5195,N,00735.3919,E,0.00,309.75,291014,,,A*65"
"$GPRMC,131712.000,A,4700.5195,N,00735.3921,E,0.00,309.75,291014,,,A*6D"
"$GPRMC,131713.000,A,4700.5195,N,00735.3922,E,0.00,309.75,291014,,,A*6F"
"$GPRMC,131714.000,A,4700.5194,N,00735.3923,E,0.00,309.75,291014,,,A*68"
"$GPRMC,131715.000,A,4700.5195,N,00735.3924,E,0.00,309.75,291014,,,A*6F"
"$GPRMC,131716.000,A,4700.5195,N,00735.3924,E,0.00,309.75,291014,,,A*6C"
"$GPRMC,131717.000,A,4700.5195,N,00735.3924,E,0.00,309.75,291014,,,A*6D"
"$GPRMC,131718.000,A,4700.5196,N,00735.3924,E,0.00,309.75,291014,,,A*61"
"$GPRMC,131719.000,A,4700.5196,N,00735.3924,E,0.00,309.75,291014,,,A*60"
"$GPRMC,131720.000,A,4700.5196,N,00735.3923,E,0.00,309.75,291014,,,A*6D"
"$GPRMC,131721.000,A,4700.5195,N,00735.3924,E,0.00,309.75,291014,,,A*68"
"$GPRMC,131722.000,A,4700.5194,N,00735.3924,E,0.00,309.75,291014,,,A*6A"
"$GPRMC,131723.000,A,4700.5195,N,00735.3924,E,0.00,309.75,291014,,,A*6A"
"$GPRMC,131724.000,A,4700.5195,N,00735.3923,E,0.00,309.75,291014,,,A*6A"
"$GPRMC,131725.000,A,4700.5195,N,00735.3923,E,0.00,309.75,291014,,,A*6B"
